ms_today;input_voltage;temp_mos_max;temp_mos_1;temp_mos_2;temp_mos_3;temp_motor;current_motor;current_in;d_axis_current;q_axis_current;erpm;duty_cycle;amp_hours_used;amp_hours_charged;watt_hours_used;watt_hours_charged;tachometer;tachometer_abs;encoder_position;fault_code;vesc_id;d_axis_voltage;q_axis_voltage;ms_today_setup;amp_hours_setup;amp_hours_charged_setup;watt_hours_setup;watt_hours_charged_setup;battery_level;battery_wh_tot;current_in_setup;current_motor_setup;speed_meters_per_sec;tacho_meters;tacho_abs_meters;num_vescs;ms_today_imu;roll;pitch;yaw;accX;accY;accZ;gyroX;gyroY;gyroZ;gnss_posTime;gnss_lat;gnss_lon;gnss_alt;gnss_gVel;gnss_vVel;gnss_hAcc;gnss_vAcc;
23540595;48.5;51.5;0;0;0;-80.6;47.26;9.01;0.24;47.47;2561;0.242;1.053;0.1279;51.2484;6.3603;626862;635420;305.874;0;61;-1.515;5.95;23540495;1.0528;0.1279;51.2382;6.3603;0.906;431.123;4.48;27.1;1.364;3215.4;3259.3;1;23540496;0.0216264;0.0532015;0.263566;0.447467;-0.0123943;1.00057;25.3815;7.52167;-2.09763;23539999;-37.71097146;145.03607005;82.90881977;0.00000000;0.00000000;4.73950092;3.37070736;
23540645;48.7;51.5;0;0;0;-79;50.17;9.75;-0.27;50;2617;0.228;1.0532;0.1279;51.2567;6.3603;626878;635436;318.327;0;61;-1.435;6.134;23540596;1.053;0.1279;51.2484;6.3603;0.905;430.454;11.09;58.4;1.313;3215.52;3259.42;1;23540596;-0.032574;0.0320044;0.259942;-0.0472331;0.0876199;1.02131;28.7406;0.91242;4.30357;23539999;-37.71097146;145.03607005;82.90881977;0.00000000;0.00000000;4.73950092;3.37070736;
23540735;48.5;51.6;0;0;0;-78;44.55;8.72;0.23;44.59;2806;0.26;1.0534;0.1279;51.2671;6.3603;626903;635461;338.326;0;61;-1.66;6.191;23540645;1.0532;0.1279;51.2567;6.3603;0.904;429.95;7.63;40.88;1.342;3215.6;3259.5;1;23540647;-0.0662733;0.0493157;0.243451;-0.129206;0.388478;1.02536;0.820616;-2.12678;22.1051;23539999;-37.71097146;145.03607005;82.90881977;0.00000000;0.00000000;4.73950092;3.37070736;
23540797;48.7;51.6;0;0;0;-76.9;42.13;8.43;-0.29;41.97;2974;0.23;1.0535;0.1279;51.2743;6.3603;626922;635480;352.796;0;61;-1.494;6.355;23540735;1.0534;0.1279;51.2671;6.3603;0.902;429.321;10.08;48.14;1.44;3215.73;3259.63;1;23540735;-0.0579363;0.0521493;0.207505;-0.144289;-0.133941;1.02167;-3.2681;4.70939;22.029;23539999;-37.71097146;145.03607005;82.90881977;0.00000000;0.00000000;4.73950092;3.37070736;
23540885;48.6;51.7;0;0;0;-78.2;34.63;6.93;0.11;34.7;3193;0.257;1.0537;0.1279;51.2823;6.3603;626951;635509;15.6536;0;61;-1.582;6.272;23540797;1.0535;0.1279;51.2743;6.3603;0.902;428.926;6.02;32.88;1.525;3215.83;3259.72;1;23540797;-0.0431857;0.0698649;0.183;-0.231358;0.047797;1.01189;-8.72768;-4.5173;25.8271;23539999;-37.71097146;145.03607005;82.90881977;0.00000000;0.00000000;4.73950092;3.37070736;
23540947;48.7;51.7;0;0;0;-77.2;36.18;7.22;-0.13;36.06;3243;0.241;1.0538;0.1279;51.2885;6.3603;626971;635529;31.0125;0;61;-1.418;6.365;23540885;1.0537;0.1279;51.2823;6.3603;0.901;428.51;9.5;45.02;1.638;3215.98;3259.88;1;23540895;-0.00892916;0.0543693;0.141954;-0.215577;0.0763364;1.01569;-40.2246;8.45847;31.7643;23539999;-37.71097146;145.03607005;82.90881977;0.00000000;0.00000000;4.73950092;3.37070736;
23541014;48.4;51.8;0;0;0;-77.5;44.42;9.56;0.44;44.61;3273;0.295;1.054;0.1279;51.2957;6.3603;626991;635549;46.3813;0;61;-1.924;6.794;23540947;1.0538;0.1279;51.2885;6.3603;0.9;428.205;7.22;35.59;1.664;3216.08;3259.98;1;23540947;0.0366295;0.0629595;0.107647;-0.0858302;-0.481121;0.998894;-29.5419;-2.21444;31.8813;23539999;-37.71097146;145.03607005;82.90881977;0.00000000;0.00000000;4.73950092;3.37070736;
23541097;48.7;51.8;0;0;0;-78.6;50.82;11.45;-0.36;50.67;3322;0.235;1.0543;0.1279;51.3102;6.3603;627021;635579;69.946;0;61;-2.01;7.095;23541014;1.054;0.1279;51.2957;6.3603;0.899;427.79;13.76;57.7;1.679;3216.18;3260.08;1;23541014;0.0729726;0.0455985;0.0829767;0.076222;-0.6423;1.02194;28.1835;-6.01124;14.0973;23540999;-37.71097684;145.03607566;82.97759828;0.00000000;0.00000000;4.74394741;3.36444646;
23541162;48.7;51.9;0;0;0;-78.3;36.05;7.16;-0.19;36.06;3287;0.239;1.0544;0.1279;51.316;6.3603;627040;635598;85.0672;0;61;-1.638;6.322;23541097;1.0543;0.1279;51.3102;6.3603;0.897;426.925;6.76;34.89;1.702;3216.34;3260.23;1;23541130;0.0194942;0.0518776;0.0557082;0.088093;-0.0366127;1.02919;3.60011;7.47537;14.9076;23540999;-37.71097684;145.03607566;82.97759828;0.00000000;0.00000000;4.74394741;3.36444646;
23541245;48.6;51.9;0;0;0;-79.8;41.55;8.53;0.33;41.58;3211;0.25;1.0546;0.1279;51.3263;6.3603;627069;635627;107.393;0;61;-1.678;6.537;23541163;1.0544;0.1279;51.316;6.3603;0.897;426.648;7.2;36.19;1.685;3216.44;3260.34;1;23541185;0.0131463;0.055581;0.0401065;-0.0462895;-0.117355;1.02325;6.74375;3.81095;15.7504;23540999;-37.71097684;145.03607566;82.97759828;0.00000000;0.00000000;4.74394741;3.36444646;
23541335;48.4;52;0;0;0;-79.5;52.87;11.93;0;52.92;3267;0.283;1.0549;0.1279;51.3403;6.3603;627099;635657;130.397;0;61;-2.169;7.118;23541245;1.0546;0.1279;51.3263;6.3603;0.896;426.09;8.6;42.49;1.646;3216.58;3260.48;1;23541247;0.0149318;0.0506947;0.0238661;0.378081;0.129696;1.01837;-4.42399;-5.28692;17.0714;23540999;-37.71097684;145.03607566;82.97759828;0.00000000;0.00000000;4.74394741;3.36444646;
23541397;48.3;52;0;0;0;-79.4;52.27;12.04;0.14;52.31;3376;0.295;1.0551;0.1279;51.3499;6.3603;627119;635677;146.489;0;61;-2.377;7.296;23541335;1.0549;0.1279;51.3403;6.3603;0.894;425.204;11.92;51.13;1.676;3216.74;3260.63;1;23541335;0.0189889;0.0483516;-0.0101587;-0.120757;0.0504943;1.0254;-15.8531;-7.43676;22.0662;23540999;-37.71097684;145.03607566;82.97759828;0.00000000;0.00000000;4.74394741;3.36444646;
23541464;47.5;52;0;0;0;-80.5;71.26;19.21;0.55;71.62;3467;0.399;1.0554;0.1279;51.3638;6.3603;627140;635698;163.024;0;61;-2.86;8.318;23541398;1.0551;0.1279;51.3499;6.3603;0.892;424.625;13.21;54.75;1.733;3216.84;3260.74;1;23541398;0.0360782;0.0522026;-0.0373758;-0.125618;-0.226777;1.02818;-2.64604;-12.4624;29.702;23540999;-37.71097684;145.03607566;82.97759828;0.00000000;0.00000000;4.74394741;3.36444646;
23541546;47.3;52.1;0;0;0;-82.4;100.55;31.69;-0.44;100.53;3820;0.395;1.0562;0.1279;51.401;6.3603;627175;635733;189.523;0;61;-3.678;9.771;23541464;1.0554;0.1279;51.3638;6.3603;0.89;423.603;29.83;97.22;1.778;3216.95;3260.85;1;23541464;0.0469949;0.0295554;-0.0641708;0.0453279;-0.0803339;1.0427;5.51459;-6.09471;22.3342;23540999;-37.71097684;145.03607566;82.97759828;0.00000000;0.00000000;4.74394741;3.36444646;
23541614;48.5;52.2;0;0;0;-82.4;68.74;20.49;-0.94;68.13;4226;0.275;1.0565;0.1279;51.4193;6.3603;627202;635760;210.905;0;61;-1.317;9.238;23541546;1.0562;0.1279;51.401;6.3603;0.884;420.775;30.74;92.6;1.965;3217.13;3261.03;1;23541546;0.0418784;0.0543237;-0.092515;-0.350677;-0.119027;1.07159;26.9806;-15.7014;8.77225;23540999;-37.71097684;145.03607566;82.97759828;0.00000000;0.00000000;4.74394741;3.36444646;
23541697;48.5;52.2;0;0;0;-83.1;31.28;7.16;0.01;31.3;4140;0.265;1.0567;0.1279;51.4281;6.3603;627240;635798;240.198;0;61;0.279;7.388;23541614;1.0565;0.1279;51.4193;6.3603;0.882;419.554;8.05;34.89;2.168;3217.27;3261.17;1;23541634;0.0090377;0.0539956;-0.12665;0.282774;-0.236829;1.02228;11.4782;20.4757;37.4151;23540999;-37.71097684;145.03607566;82.97759828;0.00000000;0.00000000;4.74394741;3.36444646;
23541763;48.2;52.3;0;0;0;-83.2;50.32;12.15;1.25;50.46;3848;0.321;1.0569;0.1279;51.4373;6.3603;627262;635820;257.443;0;61;-1.755;7.642;23541698;1.0567;0.1279;51.4281;6.3603;0.881;419.254;8.9;39.25;2.121;3217.46;3261.36;1;23541698;0.0270427;0.0302461;-0.168479;0.214258;-0.197705;1.00192;-26.6829;5.64513;37.0201;23540999;-37.71097684;145.03607566;82.97759828;0.00000000;0.00000000;4.74394741;3.36444646;
23541848;47.6;52.3;0;0;0;-84.2;74.1;20.08;0.03;74.28;3635;0.37;1.0574;0.1279;51.4602;6.3603;627294;635852;282.386;0;61;-3.115;8.406;23541763;1.0569;0.1279;51.4373;6.3603;0.88;418.733;15.63;61.53;1.97;3217.57;3261.47;1;23541763;0.0800054;0.00980118;-0.200136;0.196358;-0.565053;1.0102;-16.9696;-7.43797;22.5122;23540999;-37.71097684;145.03607566;82.97759828;0.00000000;0.00000000;4.74394741;3.36444646;
23541913;47.3;52.4;0;0;0;-85.1;90.1;27.24;0.4;90.16;3738;0.426;1.0578;0.1279;51.4814;6.3603;627316;635874;300.078;0;61;-3.815;9.364;23541848;1.0574;0.1279;51.4602;6.3603;0.877;417.149;25.93;90.41;1.862;3217.74;3261.63;1;23541848;0.129863;-0.0117681;-0.217432;-0.223686;-0.104033;1.05136;-21.2365;-24.7189;3.00144;23540999;-37.71097684;145.03607566;82.97759828;0.00000000;0.00000000;4.74394741;3.36444646;
23541998;48.2;52.5;0;0;0;-83.8;92.86;31.89;-1.04;92.46;4668;0.318;1.0587;0.1279;51.5206;6.3603;627360;635918;334.003;0;61;-3.3;10.649;23541913;1.0578;0.1279;51.4814;6.3603;0.874;415.653;31.42;94.15;1.917;3217.85;3261.75;1;23541914;0.162221;-0.013763;-0.21188;-0.615679;-0.827986;1.07681;-10.4908;-37.3838;-30.5839;23540999;-37.71097684;145.03607566;82.97759828;0.00000000;0.00000000;4.74394741;3.36444646;
23542065;48.3;52.5;0;0;0;-83.4;31.8;8.47;-0.01;31.86;4856;0.334;1.0588;0.1279;51.5276;6.3603;627391;635949;357.506;0;61;0.117;8.599;23541998;1.0587;0.1279;51.5206;6.3603;0.867;412.709;10.63;39.24;2.396;3218.08;3261.98;1;23541998;0.115179;0.0103368;-0.14371;0.422278;0.740793;1.0597;2.85973;34.6747;-21.6944;23541999;-37.71098369;145.03609398;82.80897862;1.11065164;0.00000000;4.74175229;3.36753950;
23542147;48.7;52.7;0;0;0;-83.5;40.91;10.71;-0.15;40.78;4507;0.277;1.0591;0.1279;51.5412;6.3603;627430;635988;28.6314;0;61;-0.096;8.14;23542065;1.0588;0.1279;51.5276;6.3603;0.867;412.513;13.46;46.99;2.49;3218.23;3262.13;1;23542065;0.0971776;-0.0198555;-0.132008;0.975685;-0.188836;1.00295;26.9505;17.4908;-9.58458;23541999;-37.71098369;145.03609398;82.80897862;1.11065164;0.00000000;4.74175229;3.36753950;
23542215;48.6;52.7;0;0;0;-83.3;37.43;8.75;0.05;37.48;4226;0.254;1.0592;0.1279;51.548;6.3603;627455;636013;47.6797;0;61;0.114;7.497;23542147;1.0591;0.1279;51.5412;6.3603;0.866;412.001;7.07;29.3;2.311;3218.44;3262.34;1;23542148;0.070563;-0.011463;-0.133682;0.57245;-0.544697;0.951059;-24.9257;18.6969;18.1879;23541999;-37.71098369;145.03609398;82.80897862;1.11065164;0.00000000;4.74175229;3.36753950;
23542296;48.7;52.8;0;0;0;-83.7;29.27;6.06;0.55;29.22;3796;0.252;1.0594;0.1279;51.5555;6.3603;627488;636048;73.5475;0;61;-1.061;6.636;23542215;1.0592;0.1279;51.548;6.3603;0.866;411.832;7;32.65;2.165;3218.56;3262.46;1;23542215;0.0999401;-0.0095785;-0.149932;0.129766;-0.258875;0.948788;14.8503;24.8712;14.6507;23541999;-37.71098369;145.03609398;82.80897862;1.11065164;0.00000000;4.74175229;3.36753950;
23542386;48.3;52.9;0;0;0;-82.6;34.89;7.43;0.1;35.01;3557;0.295;1.0596;0.1279;51.5639;6.3603;627519;636079;97.8992;0;61;-1.604;6.609;23542296;1.0594;0.1279;51.5555;6.3603;0.866;411.873;6.35;31.41;1.945;3218.73;3262.64;1;23542297;0.106584;-0.00803011;-0.14512;0.0410543;0.289478;0.94033;-23.1207;9.25646;-11.5759;23541999;-37.71098369;145.03609398;82.80897862;1.11065164;0.00000000;4.74175229;3.36753950;
23542444;48.4;52.9;0;0;0;-83.1;50.77;11.85;-0.04;50.7;3558;0.298;1.0598;0.1279;51.5737;6.3603;627540;636100;114.516;0;61;-2.397;7.365;23542416;1.0597;0.1279;51.5695;6.3603;0.865;411.552;10.48;50.6;1.805;3218.94;3262.85;1;23542416;0.19353;-0.0130706;-0.124245;-0.454423;-0.465507;0.975935;-26.2991;-4.36314;-30.7909;23541999;-37.71098369;145.03609398;82.80897862;1.11065164;0.00000000;4.74175229;3.36753950;
23542535;48.3;53;0;0;0;-83;46.09;11.13;0.26;46.06;3851;0.313;1.06;0.1279;51.587;6.3603;627576;636136;142.302;0;61;-2.335;7.708;23542515;1.06;0.1279;51.5827;6.3603;0.864;411.098;10.39;44.33;1.923;3219.11;3263.02;1;23542515;0.201311;-0.0114969;-0.0602629;-0.136861;-0.357949;0.995123;35.8026;-9.47806;-57.6347;23541999;-37.71098369;145.03609398;82.80897862;1.11065164;0.00000000;4.74175229;3.36753950;
23542598;48.5;53.1;0;0;0;-83.4;36.69;8.46;-1.4;36.46;4012;0.278;1.0602;0.1279;51.5943;6.3603;627600;636160;161.067;0;61;-0.347;7.464;23542515;1.06;0.1279;51.5827;6.3603;0.864;411.098;10.39;44.33;1.923;3219.11;3263.02;1;23542515;0.201311;-0.0114969;-0.0602629;-0.136861;-0.357949;0.995123;35.8026;-9.47806;-57.6347;23541999;-37.71098369;145.03609398;82.80897862;1.11065164;0.00000000;4.74175229;3.36753950;
23542664;48.3;53.1;0;0;0;-83.6;41.98;10.07;0.1;42.1;4019;0.283;1.0604;0.1279;51.6021;6.3603;627625;636185;179.939;0;61;0;7.652;23542599;1.0602;0.1279;51.5943;6.3603;0.863;410.799;8.96;37.93;2.057;3219.31;3263.22;1;23542599;0.124978;-0.0172516;0.019712;0.0713126;0.145362;0.970566;14.3865;21.4682;-35.7059;23541999;-37.71098369;145.03609398;82.80897862;1.11065164;0.00000000;4.74175229;3.36753950;
23542853;48.2;53.2;0;0;0;-84;72.41;20.7;0.06;72.41;4047;0.293;1.0609;0.1279;51.6266;6.3603;627661;636221;208.02;0;61;-1.212;8.884;23542664;1.0604;0.1279;51.6021;6.3603;0.863;410.582;12.1;49.91;2.06;3219.43;3263.34;1;23542664;0.116241;-0.00902589;0.0603686;0.0188102;-0.0627663;0.972763;7.70138;-3.72372;-41.4653;23541999;-37.71098369;145.03609398;82.80897862;1.11065164;0.00000000;4.74175229;3.36753950;
23543045;48.3;53.4;0;0;0;-79.6;49.35;13.53;-0.01;49.32;4696;0.302;1.062;0.1279;51.6812;6.3603;627797;636357;314.649;0;61;-0.368;8.685;23542853;1.0609;0.1279;51.6266;6.3603;0.86;409.124;12;50.55;2.076;3219.62;3263.53;1;23542862;0.0621494;-0.000448312;0.10835;-0.588914;-0.0357935;1.02177;33.8501;4.52076;-20.7789;23542999;-37.71099952;145.03610583;83.14063088;1.52100108;0.00000000;4.74364282;3.36487590;
23543165;48.3;53.4;0;0;0;-76.1;40.97;11.26;0.04;40.98;4868;0.324;1.0624;0.1279;51.6993;6.3603;627856;636416;0.216674;0;61;-0.158;8.796;23543045;1.062;0.1279;51.6812;6.3603;0.855;406.842;9.7;38.98;2.409;3220.32;3264.23;1;23543047;0.000378721;0.0246832;0.219576;-0.351647;0.16735;1.01093;-18.3693;2.02724;-1.64178;23542999;-37.71099952;145.03610583;83.14063088;1.52100108;0.00000000;4.74364282;3.36487590;
23543253;48.3;53.5;0;0;0;-77.8;36.95;9.88;-0.03;36.93;4862;0.33;1.0626;0.1279;51.7114;6.3603;627900;636460;34.2683;0;61;-0.006;8.583;23543165;1.0624;0.1279;51.6993;6.3603;0.854;406.314;11.27;40.69;2.498;3220.62;3264.53;1;23543165;-0.00874037;0.0281461;0.207042;-0.350174;-0.0636382;1.00123;60.2805;13.0077;0.529698;23542999;-37.71099952;145.03610583;83.14063088;1.52100108;0.00000000;4.74364282;3.36487590;
23543347;48.2;53.6;0;0;0;-78;40.29;11.04;0.12;40.36;4881;0.34;1.0629;0.1279;51.7244;6.3603;627943;636503;68.4138;0;61;-0.138;8.791;23543254;1.0626;0.1279;51.7114;6.3603;0.853;406.084;11.77;40.92;2.496;3220.84;3264.75;1;23543254;-0.071136;0.0288446;0.188297;0.0170164;0.193596;0.999884;-6.09985;19.9534;27.4598;23542999;-37.71099952;145.03610583;83.14063088;1.52100108;0.00000000;4.74364282;3.36487590;
23543413;48.6;53.6;0;0;0;-79.3;44.74;12.45;-0.42;44.47;4863;0.288;1.0631;0.1279;51.7353;6.3603;627973;636533;91.2594;0;61;-0.309;8.872;23543348;1.0629;0.1279;51.7244;6.3603;0.853;405.759;15.5;52.53;2.505;3221.07;3264.98;1;23543348;-0.0170958;0.0412991;0.143283;0.101312;-0.457788;1.01329;-5.59562;0.257736;20.5845;23542999;-37.71099952;145.03610583;83.14063088;1.52100108;0.00000000;4.74364282;3.36487590;
23543497;48.6;53.7;0;0;0;-80.9;40.48;11.07;0.04;40.5;4805;0.308;1.0634;0.1279;51.7486;6.3603;628016;636576;124.947;0;61;-0.148;8.694;23543414;1.0631;0.1279;51.7353;6.3603;0.852;405.423;6.38;25.95;2.494;3221.22;3265.13;1;23543414;-0.00610672;0.054336;0.115579;0.305109;0.305604;1.02253;-34.9875;14.0289;28.9694;23542999;-37.71099952;145.03610583;83.14063088;1.52100108;0.00000000;4.74364282;3.36487590;
23543564;48.4;53.7;0;0;0;-81.3;41.36;11.44;0.15;41.46;4850;0.315;1.0636;0.1279;51.7575;6.3603;628046;636606;148.073;0;61;-0.18;8.875;23543497;1.0634;0.1279;51.7486;6.3603;0.851;405.102;8.1;30.19;2.465;3221.44;3265.35;1;23543497;0.0678962;0.0588742;0.0900333;0.38348;-0.268983;1.02177;-32.7713;-5.91512;1.20831;23542999;-37.71099952;145.03610583;83.14063088;1.52100108;0.00000000;4.74364282;3.36487590;
23543646;48.5;53.7;0;0;0;-83.3;44.85;12.61;-0.05;44.8;4903;0.313;1.0639;0.1279;51.7728;6.3603;628090;636650;182.646;0;61;-0.321;9.031;23543564;1.0636;0.1279;51.7575;6.3603;0.851;404.886;11.13;41.1;2.488;3221.59;3265.5;1;23543565;0.117577;0.0552642;0.0996516;0.223726;-0.394816;1.02242;17.6503;-3.9205;-14.0285;23542999;-37.71099952;145.03610583;83.14063088;1.52100108;0.00000000;4.74364282;3.36487590;
23543735;48.3;53.8;0;0;0;-82.1;42.93;12.02;0.07;42.98;4932;0.332;1.0642;0.1279;51.7871;6.3603;628134;636694;217.235;0;61;-0.247;8.988;23543646;1.0639;0.1279;51.7728;6.3603;0.85;404.41;9.2;34.48;2.515;3221.82;3265.73;1;23543646;0.0684095;0.0604665;0.123126;-0.0696269;0.322872;1.01925;13.464;8.96862;-17.9398;23542999;-37.71099952;145.03610583;83.14063088;1.52100108;0.00000000;4.74364282;3.36487590;
23543831;48.6;53.8;0;0;0;-82.4;38.82;10.57;-0.21;38.66;4919;0.297;1.0644;0.1279;51.7961;6.3603;628164;636724;240.19;0;61;-0.086;8.742;23543735;1.0642;0.1279;51.7871;6.3603;0.849;404.013;12.63;43.93;2.529;3222.05;3265.96;1;23543735;0.0640929;0.0570184;0.155758;0.221769;0.0280685;1.00756;-20.1019;7.13955;-18.674;23542999;-37.71099952;145.03610583;83.14063088;1.52100108;0.00000000;4.74364282;3.36487590;
23543883;48.4;53.8;0;0;0;-82.5;35.68;9.57;0.11;35.74;4887;0.34;1.0646;0.1279;51.8075;6.3603;628208;636768;274.493;0;61;0.026;8.612;23543831;1.0644;0.1279;51.7961;6.3603;0.849;403.857;7.18;28.61;2.523;3222.2;3266.11;1;23543832;0.0839089;0.0675395;0.172068;0.175051;0.00795675;1.00091;-31.929;8.03485;-11.2429;23542999;-37.71099952;145.03610583;83.14063088;1.52100108;0.00000000;4.74364282;3.36487590;
23543946;48.2;53.9;0;0;0;-81.4;49.92;14.42;0.13;50.02;4900;0.321;1.0648;0.1279;51.8186;6.3603;628238;636798;297.611;0;61;-0.541;9.267;23543884;1.0646;0.1279;51.8075;6.3603;0.849;403.754;11.86;39.76;2.507;3222.42;3266.33;1;23543884;0.114597;0.0569327;0.197725;0.236045;-0.410992;0.996185;29.468;-6.34233;-21.2198;23542999;-37.71099952;145.03610583;83.14063088;1.52100108;0.00000000;4.74364282;3.36487590;
23544035;48;53.9;0;0;0;-82.7;50.22;14.5;0.12;50.27;4902;0.35;1.0652;0.1279;51.8358;6.3603;628282;636842;331.766;0;61;-0.53;9.211;23543946;1.0648;0.1279;51.8186;6.3603;0.848;403.337;13.06;48.57;2.512;3222.58;3266.49;1;23543946;0.0968829;0.0564776;0.220662;-0.183242;-0.072861;1.00459;45.8118;8.48297;-18.9075;23542999;-37.71099952;145.03610583;83.14063088;1.52100108;0.00000000;4.74364282;3.36487590;
23544098;48;53.9;0;0;0;-84.3;59.16;18.19;0.06;59.14;5030;0.363;1.0655;0.1279;51.8503;6.3603;628312;636872;355.568;0;61;-1.022;9.836;23544035;1.0652;0.1279;51.8358;6.3603;0.846;402.692;17.1;57.6;2.515;3222.8;3266.71;1;23544035;0.0372384;0.0548089;0.261815;-0.142266;-0.073424;1.02275;18.9829;-10.6002;-26.5783;23543999;-37.71101465;145.03612032;83.54205570;1.83643204;0.00000000;4.74124964;3.36824715;
23544155;48.2;54;0;0;0;-84.2;48.5;14.54;-0.22;48.37;5202;0.347;1.0657;0.1279;51.8624;6.3603;628344;636904;20.3975;0;61;-0.612;9.635;23544098;1.0655;0.1279;51.8503;6.3603;0.845;402.041;17.33;56.27;2.58;3222.96;3266.87;1;23544099;0.0172697;0.0625878;0.280264;-0.694037;0.305195;1.02696;-17.3132;-4.83788;-13.3475;23543999;-37.71101465;145.03612032;83.54205570;1.83643204;0.00000000;4.74124964;3.36824715;
23544248;47.9;54;0;0;0;-84.5;46.7;14.5;0.2;46.8;5382;0.386;1.0661;0.1279;51.8793;6.3603;628393;636953;58.3862;0;61;-0.636;9.851;23544155;1.0657;0.1279;51.8624;6.3603;0.844;401.629;12.7;42.8;2.67;3223.12;3267.03;1;23544165;0.0371583;0.0729651;0.295654;-0.386443;-0.381937;1.00936;2.95497;-2.99447;-17.8842;23543999;-37.71101465;145.03612032;83.54205570;1.83643204;0.00000000;4.74124964;3.36824715;
23544313;48.1;54;0;0;0;-85.1;54.81;16.98;-0.22;54.7;5330;0.354;1.0664;0.1279;51.8932;6.3603;628425;636985;83.3831;0;61;-0.945;9.92;23544248;1.0661;0.1279;51.8793;6.3603;0.843;401.076;20.04;60.18;2.761;3223.37;3267.28;1;23544249;0.0257633;0.0499782;0.317996;0.120291;0.365584;0.998523;6.79561;15.5378;-9.62488;23543999;-37.71101465;145.03612032;83.54205570;1.83643204;0.00000000;4.74124964;3.36824715;
23544397;47.6;54;0;0;0;-84.1;59.53;19.78;0.31;59.65;5530;0.437;1.0669;0.1279;51.9161;6.3603;628475;637035;122.343;0;61;-1.356;10.552;23544314;1.0664;0.1279;51.8932;6.3603;0.842;400.523;14.73;49.47;2.734;3223.54;3267.45;1;23544314;0.0133109;0.0689173;0.320941;-0.185428;0.398623;1.00879;-23.4286;-10.288;-6.75446;23543999;-37.71101465;145.03612032;83.54205570;1.83643204;0.00000000;4.74124964;3.36824715;
23544454;48.3;54.1;0;0;0;-82.1;66.92;23.57;-0.72;66.52;5695;0.338;1.0673;0.1279;51.936;6.3603;628510;637070;149.739;0;61;-2.054;10.962;23544397;1.0669;0.1279;51.9161;6.3603;0.839;399.392;26.23;69.96;2.837;3223.79;3267.7;1;23544398;0.0396244;0.05155;0.33205;0.550256;-0.463167;1.03237;30.1952;-6.76134;-1.83095;23543999;-37.71101465;145.03612032;83.54205570;1.83643204;0.00000000;4.74124964;3.36824715;
23544549;48.3;54.1;0;0;0;-78.9;35.06;10.88;0.03;35.07;5824;0.356;1.0676;0.1279;51.9491;6.3603;628563;637123;190.738;0;61;-0.259;9.929;23544455;1.0673;0.1279;51.936;6.3603;0.837;398.279;8.54;30.76;2.922;3223.97;3267.88;1;23544455;0.0291798;0.0908862;0.336222;-0.237528;0.104035;1.02961;4.03006;18.3267;-2.75958;23543999;-37.71101465;145.03612032;83.54205570;1.83643204;0.00000000;4.74124964;3.36824715;
23544604;48.6;54.1;0;0;0;-77.9;34.69;10.41;-0.28;34.52;5749;0.313;1.0677;0.1279;51.9581;6.3603;628597;637157;217.822;0;61;-0.168;9.639;23544549;1.0676;0.1279;51.9491;6.3603;0.837;398.137;10.55;35.12;2.987;3224.24;3268.15;1;23544549;-0.00543266;0.0789832;0.344387;0.210729;0.239334;0.995468;58.4421;22.9691;-4.0942;23543999;-37.71101465;145.03612032;83.54205570;1.83643204;0.00000000;4.74124964;3.36824715;
23544697;48.4;54.2;0;0;0;-77.9;35.97;10.95;0.17;36.04;5680;0.368;1.068;0.1279;51.9709;6.3603;628648;637208;257.452;0;61;-0.241;9.706;23544604;1.0677;0.1279;51.9581;6.3603;0.837;398.071;5.45;19.97;2.947;3224.42;3268.33;1;23544605;-0.054991;0.0924359;0.333844;0.262656;0.864719;0.967646;-51.1012;-3.75321;14.1976;23543999;-37.71101465;145.03612032;83.54205570;1.83643204;0.00000000;4.74124964;3.36824715;
23544755;48.5;54.2;0;0;0;-77.9;37.87;11.64;-0.1;37.81;5706;0.346;1.0682;0.1279;51.9804;6.3603;628682;637242;284.327;0;61;-0.329;9.837;23544697;1.068;0.1279;51.9709;6.3603;0.836;397.98;11.37;34.8;2.914;3224.68;3268.59;1;23544697;0.0119582;0.076647;0.315749;0.264531;0.0451738;0.977556;-6.9048;-5.62526;6.83672;23543999;-37.71101465;145.03612032;83.54205570;1.83643204;0.00000000;4.74124964;3.36824715;
23544847;48.5;54.3;0;0;0;-77.3;31.98;9.48;0;31.97;5700;0.35;1.0684;0.1279;51.992;6.3603;628734;637294;324.445;0;61;-0.053;9.563;23544755;1.0682;0.1279;51.9804;6.3603;0.836;397.859;8.88;29.77;2.927;3224.86;3268.77;1;23544786;0.013496;0.0765121;0.3109;0.160754;-0.188131;0.983146;44.5175;7.69298;2.23566;23543999;-37.71101465;145.03612032;83.54205570;1.83643204;0.00000000;4.74124964;3.36824715;
23544906;48;54.3;0;0;0;-77.8;44.85;14.38;0.43;45.04;5715;0.369;1.0687;0.1279;52.0026;6.3603;628768;637328;350.99;0;61;-0.696;10.167;23544847;1.0684;0.1279;51.992;6.3603;0.836;397.912;9.48;30.26;2.924;3225.12;3269.03;1;23544847;-0.0250414;0.0782618;0.300525;0.00349206;0.505789;1.10241;-24.8966;-6.56071;14.1501;23543999;-37.71101465;145.03612032;83.54205570;1.83643204;0.00000000;4.74124964;3.36824715;
23544997;47.8;54.3;0;0;0;-77;49.81;16.56;0.11;49.84;5738;0.394;1.0691;0.1279;52.0221;6.3603;628820;637380;31.248;0;61;-1.018;10.317;23544906;1.0687;0.1279;52.0026;6.3603;0.836;397.627;15.33;49.69;2.931;3225.3;3269.21;1;23544906;-0.0101281;0.0726896;0.279956;-0.770504;-0.250692;0.992982;-16.7686;3.24878;20.4723;23543999;-37.71101465;145.03612032;83.54205570;1.83643204;0.00000000;4.74124964;3.36824715;
23545055;48.2;54.4;0;0;0;-77.5;49.07;16.25;-0.33;48.89;5887;0.387;1.0694;0.1279;52.0358;6.3603;628856;637416;59.1592;0;61;-0.966;10.588;23544997;1.0691;0.1279;52.0221;6.3603;0.834;396.909;19.11;57.6;2.943;3225.56;3269.47;1;23544997;0.0151621;0.0577983;0.249376;0.0426558;0.258483;1.03055;-7.56828;-6.47486;27.4541;23544999;-37.71103644;145.03613169;83.63973000;2.28383947;0.00000000;4.74212076;3.36702061;
23545149;47.9;54.4;0;0;0;-78.9;52.12;18.23;0.18;52.18;6143;0.402;1.0698;0.1279;52.0571;6.3603;628912;637472;102.765;0;61;-1.311;11.117;23545056;1.0694;0.1279;52.0358;6.3603;0.833;396.451;13.87;41.29;3.022;3225.75;3269.66;1;23545086;0.00823905;0.0761296;0.217364;-0.191373;-0.133048;1.0246;-40.4529;-16.6127;29.655;23544999;-37.71103644;145.03613169;83.63973000;2.28383947;0.00000000;4.74212076;3.36702061;
23545205;47.7;54.4;0;0;0;-80.5;42.23;14.25;0.16;42.28;6207;0.449;1.07;0.1279;52.0684;6.3603;628949;637509;132.09;0;61;-0.735;10.738;23545149;1.0698;0.1279;52.0571;6.3603;0.831;395.559;17.81;51.36;3.152;3226.03;3269.94;1;23545150;0.0674316;0.0728238;0.171931;-0.467581;0.131837;1.02631;-23.2818;9.71134;23.1125;23544999;-37.71103644;145.03613169;83.63973000;2.28383947;0.00000000;4.74212076;3.36702061;
23545297;48.1;54.5;0;0;0;-81;58.8;21.07;-0.27;58.67;6260;0.401;1.0706;0.1279;52.0941;6.3603;629005;637565;175.838;0;61;-1.766;11.33;23545205;1.07;0.1279;52.0684;6.3603;0.831;395.282;22.95;60.96;3.185;3226.23;3270.14;1;23545235;0.106516;0.0577758;0.155601;0.481037;-1.00201;1.00841;-6.14156;-0.56593;9.26168;23544999;-37.71103644;145.03613169;83.63973000;2.28383947;0.00000000;4.74212076;3.36702061;
23545353;47.5;54.5;0;0;0;-81.6;56.06;21.11;0.56;56.23;6486;0.44;1.0709;0.1279;52.11;6.3603;629045;637605;206.678;0;61;-1.832;11.862;23545297;1.0706;0.1279;52.0941;6.3603;0.828;394.031;14.3;41.5;3.212;3226.52;3270.43;1;23545298;0.147579;0.0842855;0.153217;-0.0512249;-0.272771;1.02172;-52.846;-16.198;-10.5789;23544999;-37.71103644;145.03613169;83.63973000;2.28383947;0.00000000;4.74212076;3.36702061;
23545448;48.7;54.5;0;0;0;-82.8;38.8;13.9;-0.69;38.49;6775;0.372;1.0713;0.1279;52.1285;6.3603;629107;637667;254.981;0;61;-0.837;11.266;23545354;1.0709;0.1279;52.11;6.3603;0.827;393.277;22.74;60.61;3.327;3226.72;3270.63;1;23545384;0.179547;0.0819879;0.184122;-0.364475;0.0652943;1.0282;15.0887;-1.0777;-26.9451;23544999;-37.71103644;145.03613169;83.63973000;2.28383947;0.00000000;4.74212076;3.36702061;
23545504;48.3;54.5;0;0;0;-82.9;32.18;11.37;0.32;32.33;6853;0.378;1.0715;0.1279;52.137;6.3603;629149;637709;287.431;0;61;-0.477;11.281;23545448;1.0713;0.1279;52.1285;6.3603;0.826;392.836;4.98;14.62;3.476;3227.04;3270.95;1;23545448;0.153818;0.0954832;0.215532;0.580215;0.0558806;0.965043;-10.6134;11.7536;-32.0429;23544999;-37.71103644;145.03613169;83.63973000;2.28383947;0.00000000;4.74212076;3.36702061;
23545597;47.9;54.6;0;0;0;-83.5;30.35;10.19;0.25;30.44;6599;0.41;1.0717;0.1279;52.1487;6.3603;629207;637767;333.022;0;61;-0.266;10.635;23545505;1.0715;0.1279;52.137;6.3603;0.826;392.835;10.02;31.98;3.514;3227.25;3271.16;1;23545505;0.1336;0.0831876;0.24623;-0.0885292;0.313223;0.953721;24.4766;39.1866;-19.9422;23544999;-37.71103644;145.03613169;83.63973000;2.28383947;0.00000000;4.74212076;3.36702061;
23545653;48.3;54.6;0;0;0;-83.3;46.08;15.83;-0.47;45.86;6481;0.363;1.072;0.1279;52.1621;6.3603;629246;637806;3.1788;0;61;-1;10.989;23545598;1.0717;0.1279;52.1487;6.3603;0.826;392.953;18.2;52.37;3.383;3227.55;3271.46;1;23545598;0.13159;0.0743767;0.288243;-0.260162;-0.410909;0.985448;29.1858;0.107274;-36.2386;23544999;-37.71103644;145.03613169;83.63973000;2.28383947;0.00000000;4.74212076;3.36702061;
23545749;48.6;54.7;0;0;0;-80.7;22.6;7.14;-0.12;22.51;6465;0.357;1.0722;0.1279;52.1713;6.3603;629304;637864;48.5104;0;61;0.151;10.151;23545655;1.072;0.1279;52.1621;6.3603;0.825;392.575;8.83;28.86;3.324;3227.75;3271.66;1;23545655;0.0966465;0.0913122;0.328321;-0.328424;0.318946;0.323071;32.0733;4.56514;-40.2386;23544999;-37.71103644;145.03613169;83.63973000;2.28383947;0.00000000;4.74212076;3.36702061;
23545804;48.2;54.7;0;0;0;-80.4;26.89;8.61;0.38;27.1;6344;0.399;1.0723;0.1279;52.1775;6.3603;629341;637901;77.5323;0;61;-0.038;10.144;23545749;1.0722;0.1279;52.1713;6.3603;0.826;392.983;5.97;19.3;3.316;3228.05;3271.95;1;23545749;0.0234611;0.0819552;0.369213;0.00089782;0.493536;0.990917;11.32;18.6553;-11.3375;23544999;-37.71103644;145.03613169;83.63973000;2.28383947;0.00000000;4.74212076;3.36702061;
23545898;48.4;54.7;0;0;0;-80.4;44.35;14.8;-0.17;44.25;6176;0.356;1.0727;0.1279;52.1957;6.3603;629396;637956;120.625;0;61;-0.812;10.622;23545805;1.0723;0.1279;52.1775;6.3603;0.826;393.204;14.46;42.54;3.254;3228.24;3272.15;1;23545805;0.0160177;0.0662863;0.380772;0.048351;-0.378562;1.00524;16.5536;0.0992733;-10.8832;23544999;-37.71103644;145.03613169;83.63973000;2.28383947;0.00000000;4.74212076;3.36702061;
23545953;47.6;54.7;0;0;0;-78;47.81;17.15;0.77;48.11;6302;0.438;1.0729;0.1279;52.2081;6.3603;629435;637995;150.418;0;61;-1.188;11.21;23545898;1.0727;0.1279;52.1957;6.3603;0.825;392.765;8.52;28.37;3.167;3228.52;3272.43;1;23545898;-0.01939;0.0861468;0.394949;-0.317233;0.128232;1.03681;6.10204;-18.8918;-7.54618;23544999;-37.71103644;145.03613169;83.63973000;2.28383947;0.00000000;4.74212076;3.36702061;
23546049;48.1;54.7;0;0;0;-77.4;34.37;11.71;-0.32;34.22;6538;0.402;1.0733;0.1279;52.223;6.3603;629494;638054;196.706;0;61;-0.481;10.793;23545955;1.0729;0.1279;52.2081;6.3603;0.825;392.35;22.08;59.78;3.234;3228.72;3272.63;1;23545955;-0.0241325;0.0694473;0.400842;-0.452224;-0.328107;1.04572;46.4774;-8.18445;5.26;23546000;-37.71106126;145.03614732;84.00429804;2.67554674;0.00000000;4.74480418;3.36323807;
23546105;48.5;54.8;0;0;0;-78.6;38.23;12.98;-0.39;38.02;6508;0.357;1.0735;0.1279;52.2341;6.3603;629533;638093;227.37;0;61;-0.621;10.851;23546081;1.0733;0.1279;52.223;6.3603;0.824;392.261;13.53;40.07;3.353;3229.03;3272.93;1;23546082;-0.0693669;0.0708724;0.377959;0.334993;-0.493565;1.00752;13.3162;10.3879;21.2105;23546000;-37.71106126;145.03614732;84.00429804;2.67554674;0.00000000;4.74480418;3.36323807;
23546200;47.4;54.8;0;0;0;-80.2;50.91;19.12;0.76;51.18;6489;0.465;1.0739;0.1279;52.255;6.3603;629591;638151;271.944;0;61;-1.565;11.384;23546134;1.0735;0.1279;52.2367;6.3603;0.824;392.27;11.78;34.95;3.283;3229.32;3273.23;1;23546134;-0.0678018;0.0687326;0.329848;0.386051;0.631409;0.995098;-73.4705;-31.2723;33.7321;23546000;-37.71106126;145.03614732;84.00429804;2.67554674;0.00000000;4.74480418;3.36323807;
23546254;48.3;54.8;0;0;0;-80.4;46.22;16.61;-0.94;45.84;6663;0.397;1.0742;0.1279;52.2698;6.3603;629632;638192;303.695;0;61;-1.215;11.428;23546233;1.0741;0.1279;52.2642;6.3603;0.822;390.89;15;44.36;3.365;3229.62;3273.53;1;23546233;0.015385;0.0742406;0.289169;-0.250922;0.140257;1.02482;-40.2246;-3.37366;31.7154;23546000;-37.71106126;145.03614732;84.00429804;2.67554674;0.00000000;4.74480418;3.36323807;
23546349;48;54.8;0;0;0;-81.9;39.87;14.15;0.2;39.98;6641;0.405;1.0746;0.1279;52.2863;6.3603;629692;638252;350.694;0;61;-0.819;11.269;23546316;1.0744;0.1279;52.2796;6.3603;0.821;390.71;18.62;51.85;3.468;3229.94;3273.85;1;23546316;0.0566338;0.0609525;0.238557;-0.314637;-0.219654;0.998295;-18.858;10.3671;28.8411;23546000;-37.71106126;145.03614732;84.00429804;2.67554674;0.00000000;4.74480418;3.36323807;
23546404;47.5;54.8;0;0;0;-82.3;66.58;25.84;0.43;66.7;6591;0.463;1.075;0.1279;52.306;6.3603;629732;638292;21.7037;0;61;-2.559;12.168;23546316;1.0744;0.1279;52.2796;6.3603;0.821;390.71;18.62;51.85;3.468;3229.94;3273.85;1;23546316;0.0566338;0.0609525;0.238557;-0.314637;-0.219654;0.998295;-18.858;10.3671;28.8411;23546000;-37.71106126;145.03614732;84.00429804;2.67554674;0.00000000;4.74480418;3.36323807;
23546499;47.4;54.9;0;0;0;-85;74.93;31.03;0.13;74.89;6919;0.456;1.0758;0.1279;52.3423;6.3603;629794;638354;70.449;0;61;-3.539;12.92;23546404;1.075;0.1279;52.306;6.3603;0.819;389.473;24.78;63.39;3.382;3230.24;3274.15;1;23546405;0.124216;0.0580187;0.206849;-0.104972;-0.570761;1.03839;-20.9681;-28.0043;-0.845294;23546000;-37.71106126;145.03614732;84.00429804;2.67554674;0.00000000;4.74480418;3.36323807;
23546553;48.3;54.9;0;0;0;-85;40.97;15.31;-0.95;40.62;7162;0.42;1.076;0.1279;52.3561;6.3603;629838;638398;104.85;0;61;-1.071;11.961;23546499;1.0758;0.1279;52.3423;6.3603;0.814;387.334;22.63;59.72;3.55;3230.56;3274.47;1;23546499;0.0985315;0.061612;0.22079;-0.305779;0.251508;1.05906;13.1613;5.5334;-11.6084;23546000;-37.71106126;145.03614732;84.00429804;2.67554674;0.00000000;4.74480418;3.36323807;
23546649;48.3;54.9;0;0;0;-83.7;39.32;14.82;0;39.34;7182;0.406;1.0764;0.1279;52.3739;6.3603;629903;638463;155.691;0;61;-0.998;11.971;23546554;1.076;0.1279;52.3561;6.3603;0.813;387.036;10.13;28.58;3.673;3230.79;3274.7;1;23546555;0.0791917;0.082598;0.229384;-0.0689328;-0.15399;1.00701;-10.0675;11.932;-7.89511;23546000;-37.71106126;145.03614732;84.00429804;2.67554674;0.00000000;4.74480418;3.36323807;
23546704;47.8;54.9;0;0;0;-83.6;37.3;13.64;0.55;37.51;7046;0.455;1.0766;0.1279;52.3839;6.3603;629945;638505;188.236;0;61;-0.765;11.597;23546649;1.0764;0.1279;52.3739;6.3603;0.813;386.729;10.48;30.64;3.682;3231.12;3275.03;1;23546649;0.0720353;0.0705582;0.250122;0.465244;0.629533;0.98424;-34.2536;13.1615;-11.1343;23546000;-37.71106126;145.03614732;84.00429804;2.67554674;0.00000000;4.74480418;3.36323807;
23546799;48.1;55;0;0;0;-83;46.1;17.15;-0.25;45.98;7032;0.42;1.0771;0.1279;52.405;6.3603;630008;638568;237.381;0;61;-1.303;11.846;23546704;1.0766;0.1279;52.3839;6.3603;0.813;386.665;20.82;53.74;3.614;3231.34;3275.25;1;23546706;0.102175;0.0610286;0.263534;-0.07807;-0.746819;0.979858;-5.60756;1.46463;-19.1756;23546000;-37.71106126;145.03614732;84.00429804;2.67554674;0.00000000;4.74480418;3.36323807;
23546853;47.8;55;0;0;0;-84.6;50.21;19.6;0.25;50.27;7117;0.431;1.0774;0.1279;52.4202;6.3603;630051;638611;270.854;0;61;-1.709;12.337;23546799;1.0771;0.1279;52.405;6.3603;0.811;386.087;13.23;36.98;3.607;3231.66;3275.57;1;23546799;0.125436;0.0806229;0.301084;0.194773;-0.438983;0.980364;13.2096;-1.13771;-27.3222;23546000;-37.71106126;145.03614732;84.00429804;2.67554674;0.00000000;4.74480418;3.36323807;
23546949;47.8;55;0;0;0;-83.5;41.5;15.37;0;41.48;6957;0.431;1.0778;0.1279;52.4387;6.3603;630114;638674;319.549;0;61;-1.053;11.61;23546854;1.0774;0.1279;52.4202;6.3603;0.81;385.567;15.65;43.99;3.65;3231.88;3275.79;1;23546855;0.0993531;0.0757619;0.337725;-0.23717;0.646644;0.99436;64.5478;16.7565;-31.3033;23546000;-37.71106126;145.03614732;84.00429804;2.67554674;0.00000000;4.74480418;3.36323807;
23547004;47.3;55.1;0;0;0;-83.6;44.84;16.79;0.65;45.02;6915;0.515;1.078;0.1279;52.4511;6.3603;630155;638715;351.689;0;61;-1.186;11.751;23546950;1.0778;0.1279;52.4387;6.3603;0.81;385.231;18.01;48.51;3.568;3232.2;3276.11;1;23546950;0.0333066;0.0697538;0.358451;-0.201389;0.266209;0.995084;-20.9907;10.3371;-4.95626;23546000;-37.71106126;145.03614732;84.00429804;2.67554674;0.00000000;4.74480418;3.36323807;
23547101;47.9;55.1;0;0;0;-84.5;60.26;24.64;-0.45;60.06;7278;0.457;1.0787;0.1279;52.4813;6.3603;630221;638781;43.3087;0;61;-2.602;12.804;23547004;1.078;0.1279;52.4511;6.3603;0.809;384.937;30.64;71.19;3.548;3232.42;3276.32;1;23547005;0.0462472;0.066057;0.363878;-0.337335;-0.593661;0.996396;-14.2131;-25.7216;-9.80473;23547000;-37.71108853;145.03616058;84.22129579;2.98367093;0.00000000;4.74515820;3.36273857;
23547153;48.4;55.1;0;0;0;-83.8;35.54;13.57;-0.54;35.31;7466;0.421;1.0789;0.1279;52.4932;6.3603;630267;638827;78.9464;0;61;-0.837;12.195;23547101;1.0787;0.1279;52.4813;6.3603;0.806;383.57;16.87;43.02;3.734;3232.75;3276.66;1;23547101;-0.0397908;0.0827606;0.383392;0.0372442;0.0240004;1.01027;34.4443;-6.71521;-18.7712;23547000;-37.71108853;145.03616058;84.22129579;2.98367093;0.00000000;4.74515820;3.36273857;
23547249;48;55.1;0;0;0;-82.8;36.94;14.32;0.33;37.06;7501;0.459;1.0793;0.1279;52.5096;6.3603;630335;638895;131.747;0;61;-0.951;12.288;23547154;1.0789;0.1279;52.4932;6.3603;0.806;383.47;7.89;21.04;3.83;3232.99;3276.9;1;23547154;-0.0571489;0.088516;0.402359;0.257796;0.347498;0.972973;-2.73288;7.31554;-16.0572;23547000;-37.71108853;145.03616058;84.22129579;2.98367093;0.00000000;4.74515820;3.36273857;
23547304;47.2;55.2;0;0;0;-82.5;37.4;14.71;0.8;37.64;7459;0.532;1.0795;0.1279;52.5201;6.3603;630379;638939;166.465;0;61;-0.983;12.22;23547249;1.0793;0.1279;52.5096;6.3603;0.806;383.337;15.81;40.39;3.848;3233.33;3277.24;1;23547249;-0.0518023;0.0739231;0.421019;-0.225068;0.0663482;0.984608;9.63662;10.0425;-8.85972;23547000;-37.71108853;145.03616058;84.22129579;2.98367093;0.00000000;4.74515820;3.36273857;
23547402;47.5;55.2;0;0;0;-83.3;39.97;16.14;-0.14;39.79;7416;0.515;1.0799;0.1279;52.5397;6.3603;630445;639005;217.901;0;61;-1.375;12.015;23547304;1.0795;0.1279;52.5201;6.3603;0.805;383.26;31.62;71.71;3.826;3233.57;3277.47;1;23547306;-0.0566675;0.048196;0.431692;0.152589;-0.825642;0.999638;38.8786;-0.879434;-10.0963;23547000;-37.71108853;145.03616058;84.22129579;2.98367093;0.00000000;4.74515820;3.36273857;
23547453;47.8;55.2;0;0;0;-83.7;64.13;26.66;-0.51;63.87;7428;0.425;1.0803;0.1279;52.5614;6.3603;630490;639050;252.74;0;61;-2.995;13.015;23547402;1.0799;0.1279;52.5397;6.3603;0.805;382.908;28.91;65.49;3.805;3233.9;3277.81;1;23547402;-0.080581;0.0702047;0.444638;-0.326903;-0.704242;0.992811;15.2239;-43.3959;3.05712;23547000;-37.71108853;145.03616058;84.22129579;2.98367093;0.00000000;4.74515820;3.36273857;
23547550;47.3;55.2;0;0;0;-83.7;48.13;20.45;0.43;48.16;7351;0.491;1.0808;0.1279;52.5845;6.3603;630556;639116;304.122;0;61;-2.048;12.326;23547454;1.0803;0.1279;52.5614;6.3603;0.803;381.868;13.32;39.25;3.809;3234.13;3278.04;1;23547455;-0.084388;0.079795;0.451374;-0.552792;0.20012;-1.76544;58.721;26.1018;-11.4046;23547000;-37.71108853;145.03616058;84.22129579;2.98367093;0.00000000;4.74515820;3.36273857;
23547604;48.1;55.3;0;0;0;-84.2;52.56;21.07;-0.88;52.24;7415;0.455;1.0812;0.1279;52.6026;6.3603;630600;639160;338.725;0;61;-2.028;12.605;23547550;1.0808;0.1279;52.5845;6.3603;0.801;381.055;26.95;64.29;3.771;3234.47;3278.38;1;23547550;-0.0879268;0.0556194;0.457284;0.0889213;0.702102;1.04284;-5.75878;1.13985;10.4414;23547000;-37.71108853;145.03616058;84.22129579;2.98367093;0.00000000;4.74515820;3.36273857;
23547702;47.1;55.3;0;0;0;-83.6;58.58;25.53;0.7;58.74;7801;0.541;1.0818;0.1279;52.6314;6.3603;630671;639231;34.1601;0;61;-2.835;13.609;23547605;1.0812;0.1279;52.6026;6.3603;0.8;380.445;14.91;37.5;3.805;3234.7;3278.61;1;23547605;-0.0874567;0.0778737;0.45639;0.0805969;0.436685;1.04063;-26.9045;-22.9262;-5.33323;23547000;-37.71108853;145.03616058;84.22129579;2.98367093;0.00000000;4.74515820;3.36273857;
23547753;47.6;55.3;0;0;0;-84;45.93;19.66;-0.4;45.79;8068;0.548;1.0822;0.1279;52.6477;6.3603;630721;639281;72.7261;0;61;-1.946;13.456;23547702;1.0818;0.1279;52.6314;6.3603;0.797;379.106;29.65;63.71;4.006;3235.06;3278.97;1;23547702;-0.081562;0.0658175;0.477192;-0.521179;-0.30931;1.06561;69.5536;-10.3171;-18.4817;23547000;-37.71108853;145.03616058;84.22129579;2.98367093;0.00000000;4.74515820;3.36273857;
23547850;47.9;55.4;0;0;0;-84.8;53.15;22.91;-0.26;53.05;8050;0.483;1.0827;0.1279;52.6753;6.3603;630794;639354;129.35;0;61;-2.479;13.512;23547754;1.0822;0.1279;52.6477;6.3603;0.796;378.64;25.52;56.41;4.141;3235.32;3279.23;1;23547755;-0.127938;0.0636085;0.487436;0.732534;0.567417;1.02764;1.36843;0.218596;12.5429;23547000;-37.71108853;145.03616058;84.22129579;2.98367093;0.00000000;4.74515820;3.36273857;
23547903;47.1;55.4;0;0;0;-83.7;57.68;26.32;0.85;57.84;8257;0.542;1.0832;0.1279;52.6949;6.3603;630844;639404;168.331;0;61;-3.09;14.189;23547850;1.0827;0.1279;52.6753;6.3603;0.794;377.584;17.7;42.34;4.129;3235.69;3279.6;1;23547851;-0.0469106;0.087015;0.439474;-0.116288;-0.551692;1.01232;-83.8092;-15.9886;24.5843;23547000;-37.71108853;145.03616058;84.22129579;2.98367093;0.00000000;4.74515820;3.36273857;
23548000;48.4;55.4;0;0;0;-84.9;34.86;14.54;-0.99;34.38;8202;0.423;1.0836;0.1279;52.7145;6.3603;630918;639478;226.311;0;61;-1.202;12.95;23547904;1.0832;0.1279;52.6949;6.3603;0.792;376.673;27.85;60.21;4.238;3235.95;3279.85;1;23547906;0.0195282;0.0801813;0.431015;-0.923646;-0.234832;1.0276;35.6076;-2.45137;6.81601;23547000;-37.71108853;145.03616058;84.22129579;2.98367093;0.00000000;4.74515820;3.36273857;
23548054;47.7;55.4;0;0;0;-85.6;29.61;11.98;0.81;29.87;7967;0.471;1.0837;0.1279;52.7228;6.3603;630965;639525;262.752;0;61;-0.693;12.386;23548000;1.0836;0.1279;52.7145;6.3603;0.791;376.572;7.06;18.72;4.204;3236.33;3280.24;1;23548025;0.007373;0.0814773;0.409792;0.142197;0.03801;0.975333;-68.1036;-5.34601;-6.06109;23548000;-37.71111567;145.03617257;84.18892689;3.17979946;0.00000000;4.74476036;3.36329989;
23548150;47.9;55.5;0;0;0;-84;57.8;25.22;-0.13;57.7;8020;0.498;1.0844;0.1279;52.753;6.3603;631037;639597;318.672;0;61;-2.838;13.579;23548057;1.0837;0.1279;52.7228;6.3603;0.792;376.814;19.9;49.59;4.084;3236.57;3280.48;1;23548117;0.0729353;0.0780897;0.45763;-0.856062;0.432861;1.02433;23.62;-8.10243;-47.2841;23548000;-37.71111567;145.03617257;84.18892689;3.17979946;0.00000000;4.74476036;3.36329989;
23548235;48;55.5;0;0;0;-84.9;34.83;14.55;0;34.78;8066;0.525;1.0847;0.1279;52.7705;6.3603;631110;639670;15.9527;0;61;-1.111;12.944;23548151;1.0844;0.1279;52.753;6.3603;0.789;375.562;18.09;41.26;4.116;3236.93;3280.84;1;23548117;0.0729353;0.0780897;0.45763;-0.856062;0.432861;1.02433;23.62;-8.10243;-47.2841;23548000;-37.71111567;145.03617257;84.18892689;3.17979946;0.00000000;4.74476036;3.36329989;
23548325;47.9;55.6;0;0;0;-84.6;51.48;21.85;-0.1;51.38;7990;0.463;1.0851;0.1279;52.7878;6.3603;631158;639718;53.0705;0;61;-2.265;13.332;23548235;1.0847;0.1279;52.7705;6.3603;0.789;375.569;20.56;45.22;4.138;3237.32;3281.22;1;23548269;0.00731845;0.0786829;0.511476;-0.451378;-0.0976489;1.00358;-15.5804;-3.89893;-21.9523;23548000;-37.71111567;145.03617257;84.18892689;3.17979946;0.00000000;4.74476036;3.36329989;
23548417;47.9;55.6;0;0;0;-84.8;36.58;14.98;0.01;36.56;8081;0.494;1.0856;0.1279;52.8118;6.3603;631255;639815;128.94;0;61;-1.106;13.013;23548325;1.0851;0.1279;52.7878;6.3603;0.788;375.025;14.51;37.07;4.098;3237.56;3281.46;1;23548354;0.00164926;0.0812418;0.54703;-0.128299;-0.0692518;0.98615;23.1279;10.9881;-19.8872;23548000;-37.71111567;145.03617257;84.18892689;3.17979946;0.00000000;4.74476036;3.36329989;
23548505;48;55.6;0;0;0;-83.7;41.91;17.44;-0.03;41.85;8056;0.506;1.0861;0.1279;52.8328;6.3603;631327;639887;185.41;0;61;-1.516;13.119;23548418;1.0856;0.1279;52.8118;6.3603;0.788;375.003;17.13;40.32;4.145;3238.06;3281.97;1;23548451;-0.0195387;0.0675937;0.567795;0.226986;-0.170083;0.981118;26.1164;-9.41535;-13.4155;23548000;-37.71111567;145.03617257;84.18892689;3.17979946;0.00000000;4.74476036;3.36329989;
23548601;48.3;55.7;0;0;0;-80.9;46.29;20.04;-0.2;46.16;8158;0.493;1.0866;0.1279;52.8571;6.3603;631401;639961;242.904;0;61;-2.029;13.464;23548505;1.0861;0.1279;52.8328;6.3603;0.787;374.707;17.31;39.64;4.134;3238.43;3282.34;1;23548505;-0.0365974;0.0637982;0.587382;0.76646;0.745477;0.978512;-7.44838;-18.0279;-10.9919;23548000;-37.71111567;145.03617257;84.18892689;3.17979946;0.00000000;4.74476036;3.36329989;
23548655;48;55.7;0;0;0;-80.2;38.84;16.33;0.28;38.91;8203;0.481;1.0868;0.1279;52.8696;6.3603;631451;640011;281.822;0;61;-1.365;13.36;23548601;1.0866;0.1279;52.8571;6.3603;0.786;374.069;11.58;27.29;4.187;3238.81;3282.72;1;23548601;-0.0850265;0.0706501;0.58194;0.549322;1.058;0.996806;-46.2312;-1.98437;14.6323;23548000;-37.71111567;145.03617257;84.18892689;3.17979946;0.00000000;4.74476036;3.36329989;
23548752;48.4;55.7;0;0;0;-79.6;45.87;19.96;-0.29;45.69;8307;0.456;1.0873;0.1279;52.8941;6.3603;631526;640086;340.357;0;61;-2.006;13.636;23548655;1.0868;0.1279;52.8696;6.3603;0.786;373.976;15.17;36.82;4.207;3239.06;3282.97;1;23548655;-0.0550484;0.0712696;0.564521;0.13392;-0.299631;0.993018;24.2766;-9.42031;10.8241;23548000;-37.71111567;145.03617257;84.18892689;3.17979946;0.00000000;4.74476036;3.36329989;
23548805;48.7;55.7;0;0;0;-79;35.32;15.34;-0.3;35.01;8451;0.401;1.0876;0.1279;52.9068;6.3603;631578;640138;20.9005;0;61;-1.294;13.512;23548752;1.0873;0.1279;52.8941;6.3603;0.785;373.399;7.72;19.77;4.261;3239.45;3283.36;1;23548752;-0.0572197;0.0667442;0.553476;1.23708;0.470053;1.00568;54.4566;6.05249;21.9111;23548000;-37.71111567;145.03617257;84.18892689;3.17979946;0.00000000;4.74476036;3.36329989;
23548902;48;55.7;0;0;0;-82.5;46.67;20.6;0.47;46.71;8094;0.452;1.0881;0.1279;52.9298;6.3603;631650;640210;76.5052;0;61;-2.234;13.244;23548805;1.0876;0.1279;52.9068;6.3603;0.785;373.377;0.87;3.8;4.333;3239.72;3283.62;1;23548805;-0.0871322;0.0866189;0.535606;0.955304;1.28127;3.22189;-14.6931;18.0235;18.9574;23548000;-37.71111567;145.03617257;84.18892689;3.17979946;0.00000000;4.74476036;3.36329989;
23548955;47.6;55.8;0;0;0;-83.2;48.91;21.21;0.47;48.98;8120;0.516;1.0884;0.1279;52.9459;6.3603;631699;640259;114.864;0;61;-2.152;13.545;23548902;1.0881;0.1279;52.9298;6.3603;0.783;372.799;13.38;35.37;4.149;3240.09;3283.99;1;23548902;-0.0912535;0.0691889;0.469413;-0.471475;0.713375;1.05021;-4.64663;10.2654;43.7971;23548000;-37.71111567;145.03617257;84.18892689;3.17979946;0.00000000;4.74476036;3.36329989;
23549053;47.3;55.8;0;0;0;-81.9;61.94;29.13;0.23;61.94;8520;0.514;1.0891;0.1279;52.9796;6.3603;631776;640336;174.903;0;61;-3.678;14.531;23548955;1.0884;0.1279;52.9459;6.3603;0.783;372.358;21.25;50.08;4.166;3240.34;3284.24;1;23548957;0.0160222;0.0674692;0.430988;-0.439571;-0.754065;1.05306;-15.6673;-16.8578;29.9879;23549000;-37.71115030;145.03617684;84.18751534;3.56552009;0.00000000;4.74378640;3.36467348;
23549105;48.5;55.8;0;0;0;-81.8;29.48;12.56;-1.38;29.02;8785;0.47;1.0894;0.1279;52.9921;6.3603;631830;640390;217.342;0;61;-0.828;13.676;23549053;1.0891;0.1279;52.9796;6.3603;0.779;370.73;22.51;51.67;4.371;3240.73;3284.64;1;23549054;0.0742522;0.0722424;0.423288;-0.632051;0.656439;1.05993;-26.6541;0.472458;-13.4447;23549000;-37.71115030;145.03617684;84.18751534;3.56552009;0.00000000;4.74378640;3.36467348;
23549202;48;55.8;0;0;0;-81.5;33.7;15;0.37;33.75;8890;0.464;1.0898;0.1279;53.009;6.3603;631910;640470;279.7;0;61;-1.264;14.074;23549106;1.0894;0.1279;52.9921;6.3603;0.779;370.874;4.8;11.01;4.506;3241.01;3284.92;1;23549106;0.0463961;0.080682;0.419168;1.25538;0.448373;0.981842;-26.2052;15.3054;8.47935;23549000;-37.71115030;145.03617684;84.18751534;3.56552009;0.00000000;4.74378640;3.36467348;
23549255;47.3;55.8;0;0;0;-81.2;28.5;12.54;0.84;28.69;8773;0.537;1.0899;0.1279;53.0177;6.3603;631963;640523;320.354;0;61;-0.827;13.565;23549202;1.0898;0.1279;53.009;6.3603;0.78;370.988;10.46;27.31;4.559;3241.42;3285.33;1;23549202;0.00676774;0.0829836;0.44085;0.110285;0.215913;0.978244;40.1547;20.8921;-3.45289;23549000;-37.71115030;145.03617684;84.18751534;3.56552009;0.00000000;4.74378640;3.36467348;
23549352;48;55.9;0;0;0;-82.3;31.05;12.67;-0.52;30.84;8366;0.461;1.0903;0.1279;53.0342;6.3603;632037;640597;18.2797;0;61;-0.832;12.839;23549255;1.0899;0.1279;53.0177;6.3603;0.78;371.264;25.07;56.78;4.497;3241.69;3285.6;1;23549255;-0.0366853;0.0574119;0.429271;-0.317219;-0.575551;0.988155;59.5572;11.9228;17.9069;23549000;-37.71115030;145.03617684;84.18751534;3.56552009;0.00000000;4.74378640;3.36467348;
23549405;47.5;55.9;0;0;0;-82.4;53.48;23.84;0.44;53.55;8302;0.522;1.0907;0.1279;53.0523;6.3603;632086;640646;56.7618;0;61;-2.64;13.897;23549353;1.0903;0.1279;53.0342;6.3603;0.781;371.601;13.71;35.14;4.289;3242.07;3285.98;1;23549353;-0.0376651;0.0739444;0.3734;0.00222491;0.144054;0.993039;-47.8363;-1.56278;39.1264;23549000;-37.71115030;145.03617684;84.18751534;3.56552009;0.00000000;4.74378640;3.36467348;
23549503;48;55.9;0;0;0;-83.4;31.48;12.91;-0.29;31.37;8262;0.486;1.091;0.1279;53.0685;6.3603;632161;640721;114.754;0;61;-0.825;12.966;23549405;1.0907;0.1279;53.0523;6.3603;0.78;370.982;21.52;48.22;4.26;3242.32;3286.23;1;23549405;0.0186707;0.0684653;0.329902;-0.235563;0.568108;1.02401;-33.669;14.4805;42.4584;23549000;-37.71115030;145.03617684;84.18751534;3.56552009;0.00000000;4.74378640;3.36467348;
23549555;48.5;55.9;0;0;0;-83.8;29.48;11.68;-0.53;29.22;8139;0.423;1.0912;0.1279;53.079;6.3603;632209;640769;152.644;0;61;-0.605;12.576;23549503;1.091;0.1279;53.0685;6.3603;0.78;371.279;16.72;38.92;4.237;3242.71;3286.61;1;23549503;0.130741;0.0797011;0.292454;-0.163049;-1.41938;1.00826;-8.81293;-5.73965;4.01512;23549000;-37.71115030;145.03617684;84.18751534;3.56552009;0.00000000;4.74378640;3.36467348;
23549653;48.4;55.9;0;0;0;-84.4;21.26;8.04;0.04;21.28;7969;0.409;1.0914;0.1279;53.0885;6.3603;632281;640841;208.233;0;61;-0.052;12.145;23549555;1.0912;0.1279;53.079;6.3603;0.781;371.553;5.27;14.78;4.172;3242.95;3286.86;1;23549557;0.121745;0.0868986;0.29343;0.169284;0.223678;1.23891;-18.4448;30.3508;-2.78914;23549000;-37.71115030;145.03617684;84.18751534;3.56552009;0.00000000;4.74378640;3.36467348;
23549704;48.5;55.9;0;0;0;-84.7;21.72;8.06;0.04;21.68;7799;0.454;1.0916;0.1279;53.0952;6.3603;632327;640887;244.528;0;61;-0.035;11.854;23549654;1.0914;0.1279;53.0885;6.3603;0.783;372.441;6.69;19.17;4.085;3243.32;3287.22;1;23549654;0.169758;0.0951133;0.335408;0.273475;0.0668101;0.950972;11.3742;15.4898;-36.8143;23549000;-37.71115030;145.03617684;84.18751534;3.56552009;0.00000000;4.74378640;3.36467348;
23549803;48;55.9;0;0;0;-85;38.47;15.3;0.28;38.54;7670;0.444;1.0919;0.1279;53.1124;6.3603;632396;640956;297.726;0;61;-1.126;12.493;23549704;1.0916;0.1279;53.0952;6.3603;0.784;373.02;9.12;22.32;4.001;3243.56;3287.47;1;23549706;0.15851;0.0868419;0.381597;-0.0536502;0.128282;0.939889;-20.2301;7.28309;-48.974;23549000;-37.71115030;145.03617684;84.18751534;3.56552009;0.00000000;4.74378640;3.36467348;
23549855;48;55.9;0;0;0;-84.4;30.75;11.59;-0.05;30.71;7637;0.447;1.0921;0.1279;53.1219;6.3603;632442;641002;333.423;0;61;-0.513;12.088;23549804;1.0919;0.1279;53.1124;6.3603;0.784;373.072;14.37;38.7;3.932;3243.91;3287.82;1;23549804;0.119376;0.0928864;0.483382;-0.33953;0.762278;0.980545;56.7871;10.7662;-72.9051;23549000;-37.71115030;145.03617684;84.18751534;3.56552009;0.00000000;4.74378640;3.36467348;
23549953;47.7;56;0;0;0;-84.1;40.67;16.04;0.25;40.75;7562;0.437;1.0925;0.1279;53.1403;6.3603;632509;641069;26.2697;0;61;-1.184;12.455;23549855;1.0921;0.1279;53.1219;6.3603;0.785;373.348;13.99;36.75;3.918;3244.14;3288.05;1;23549855;0.0255172;0.0966502;0.554628;-0.227643;0.519009;0.991973;39.1769;-4.82961;-61.2194;23549000;-37.71115030;145.03617684;84.18751534;3.56552009;0.00000000;4.74378640;3.36467348;
23550004;47.6;56;0;0;0;-84.5;51.34;20.55;0.04;51.33;7464;0.452;1.0928;0.1279;53.1566;6.3603;632554;641114;60.9205;0;61;-1.865;12.625;23549954;1.0925;0.1279;53.1403;6.3603;0.785;373.305;18.2;48.97;3.877;3244.49;3288.4;1;23549954;-0.061902;0.0865471;0.609174;-0.336219;0.313085;1.02812;36.0109;2.32079;-19.7864;23549000;-37.71115030;145.03617684;84.18751534;3.56552009;0.00000000;4.74378640;3.36467348;
23550105;47.4;56;0;0;0;-83.7;53.3;22.09;0.15;53.33;7629;0.499;1.0934;0.1279;53.1826;6.3603;632623;641183;114.466;0;61;-2.134;13.068;23550004;1.0928;0.1279;53.1566;6.3603;0.784;372.895;19.93;51.66;3.827;3244.72;3288.63;1;23550005;-0.109263;0.0841718;0.617936;0.073222;0.13193;1.05806;35.1766;-2.56059;2.09615;23550000;-37.71118895;145.03618700;85.55459887;3.88332055;0.00000000;4.74370437;3.36478913;
23550155;47.8;56;0;0;0;-83.4;50.01;20.63;-0.43;49.85;7743;0.466;1.0937;0.1279;53.1997;6.3603;632670;641230;151.172;0;61;-1.961;13.066;23550105;1.0934;0.1279;53.1826;6.3603;0.782;372.129;24.56;57.7;3.914;3245.07;3288.98;1;23550105;-0.146344;0.0825646;0.603789;-0.379241;0.512826;1.0632;11.9088;-2.12444;21.2449;23550000;-37.71118895;145.03618700;85.55459887;3.88332055;0.00000000;4.74370437;3.36478913;
23550254;47.8;56;0;0;0;-84.5;42.06;16.94;-0.05;42.04;7781;0.452;1.0942;0.1279;53.2201;6.3603;632740;641300;205.632;0;61;-1.34;12.818;23550155;1.0937;0.1279;53.1997;6.3603;0.781;371.72;17.09;42.86;3.972;3245.31;3289.22;1;23550157;-0.141827;0.0860594;0.569912;-0.284692;0.440963;1.0333;-51.3749;4.18352;35.831;23550000;-37.71118895;145.03618700;85.55459887;3.88332055;0.00000000;4.74370437;3.36478913;
23550305;47;56;0;0;0;-83.1;58.31;25.9;0.93;58.54;7919;0.521;1.0946;0.1279;53.2391;6.3603;632788;641348;243.034;0;61;-2.887;13.779;23550254;1.0942;0.1279;53.2201;6.3603;0.781;371.57;15.72;40.24;3.991;3245.67;3289.58;1;23550254;-0.00998763;0.0888195;0.513225;-0.0787322;-0.259531;0.988659;-37.2145;-12.8808;26.4292;23550000;-37.71118895;145.03618700;85.55459887;3.88332055;0.00000000;4.74370437;3.36478913;
23550404;46.9;56;0;0;0;-83;49.01;21.24;0.13;49.05;8098;0.548;1.0951;0.1279;53.2641;6.3603;632861;641421;299.971;0;61;-2.138;13.514;23550306;1.0946;0.1279;53.2391;6.3603;0.779;370.782;28.99;66.61;4.062;3245.92;3289.83;1;23550306;0.0380881;0.0729417;0.502224;-0.585996;-0.546707;1.01097;39.7242;-14.0463;6.14725;23550000;-37.71118895;145.03618700;85.55459887;3.88332055;0.00000000;4.74370437;3.36478913;
23550454;48;56;0;0;0;-84.8;46.01;18.79;-1.23;45.64;7998;0.478;1.0954;0.1279;53.281;6.3603;632909;641469;337.235;0;61;-1.739;12.941;23550404;1.0951;0.1279;53.2641;6.3603;0.778;370.097;31.54;71.06;4.153;3246.29;3290.2;1;23550404;-0.0186001;0.0594311;0.48409;-0.53648;-0.814099;0.999222;54.1204;2.98115;6.68105;23550000;-37.71118895;145.03618700;85.55459887;3.88332055;0.00000000;4.74370437;3.36478913;
23550554;47.7;56;0;0;0;-84.9;49.34;21.04;0.16;49.36;8032;0.512;1.096;0.1279;53.3057;6.3603;632981;641541;33.7103;0;61;-2.066;13.441;23550455;1.0954;0.1279;53.281;6.3603;0.777;369.822;15.38;37.75;4.102;3246.54;3290.45;1;23550456;-0.0552966;0.0756084;0.47464;-0.031338;0.0950662;0.990409;-12.9604;-8.13705;10.2639;23550000;-37.71118895;145.03618700;85.55459887;3.88332055;0.00000000;4.74370437;3.36478913;
23550605;47.8;56;0;0;0;-84.4;42.29;17.77;-0.04;42.24;8142;0.481;1.0963;0.1279;53.3199;6.3603;633030;641590;71.8389;0;61;-1.546;13.347;23550554;1.096;0.1279;53.3057;6.3603;0.776;369.215;20.19;45.63;4.122;3246.91;3290.82;1;23550554;-0.00313483;0.0696211;0.456846;-0.407382;-0.0701276;0.994044;-31.5481;-7.22292;10.7798;23550000;-37.71118895;145.03618700;85.55459887;3.88332055;0.00000000;4.74370437;3.36478913;
23550704;47.4;56.1;0;0;0;-84.1;43.75;18.7;0.29;43.81;8204;0.548;1.0967;0.1279;53.3416;6.3603;633104;641664;129.421;0;61;-1.696;13.486;23550605;1.0963;0.1279;53.3199;6.3603;0.776;369.08;17.33;42.17;4.176;3247.16;3291.07;1;23550605;0.0422349;0.0767113;0.449595;-0.232181;-0.0715439;0.964177;-47.4242;-2.20028;4.26382;23550000;-37.71118895;145.03618700;85.55459887;3.88332055;0.00000000;4.74370437;3.36478913;
23550756;47.6;56.1;0;0;0;-83.5;43.32;18.72;-0.12;43.19;8279;0.518;1.097;0.1279;53.3567;6.3603;633154;641714;168.449;0;61;-1.789;13.504;23550704;1.0967;0.1279;53.3416;6.3603;0.775;368.758;26.04;56.07;4.211;3247.54;3291.45;1;23550704;0.0698378;0.0480148;0.448821;0.232315;-0.680195;0.9863;17.1146;6.609;-3.14805;23550000;-37.71118895;145.03618700;85.55459887;3.88332055;0.00000000;4.74370437;3.36478913;
23550874;48.1;56.1;0;0;0;-82.9;55.64;25.07;-0.51;55.38;8397;0.471;1.0977;0.1279;53.3874;6.3603;633230;641790;227.523;0;61;-2.895;14.007;23550756;1.097;0.1279;53.3567;6.3603;0.775;368.532;22.65;52.27;4.246;3247.8;3291.71;1;23550758;0.0907032;0.0682416;0.460289;-0.435834;-0.0839161;0.971946;-36.1826;-10.7405;-19.8851;23550000;-37.71118895;145.03618700;85.55459887;3.88332055;0.00000000;4.74370437;3.36478913;
23550938;48.3;56.1;0;0;0;-82.2;27.18;11.17;-0.08;27.11;8427;0.418;1.098;0.1279;53.4012;6.3603;633306;641866;286.929;0;61;-0.555;13.129;23550875;1.0977;0.1279;53.3874;6.3603;0.772;367.408;9.27;24.1;4.308;3248.18;3292.09;1;23550876;0.0526595;0.0785472;0.492398;0.144129;0.814028;1.0104;9.32069;11.7813;-19.8003;23550000;-37.71118895;145.03618700;85.55459887;3.88332055;0.00000000;4.74370437;3.36478913;
23551005;47.8;56.2;0;0;0;-84.3;32.45;13.39;0.5;32.59;8145;0.474;1.0982;0.1279;53.4109;6.3603;633354;641914;324.682;0;61;-0.897;12.7;23550972;1.098;0.1279;53.4036;6.3603;0.774;368.351;16.99;36.68;4.243;3248.7;3292.61;1;23550972;-0.0105066;0.061146;0.490663;0.407969;-0.229605;0.967237;6.88897;-7.47886;15.1144;23550000;-37.71118895;145.03618700;85.55459887;3.88332055;0.00000000;4.74370437;3.36478913;
23551055;47.8;56.1;0;0;0;-84.6;38.89;15.89;0;38.87;8083;0.524;1.0984;0.1279;53.4238;6.3603;633402;641962;1.83792;0;61;-1.192;13.014;23550972;1.098;0.1279;53.4036;6.3603;0.774;368.351;16.99;36.68;4.243;3248.7;3292.61;1;23550972;-0.0105066;0.061146;0.490663;0.407969;-0.229605;0.967237;6.88897;-7.47886;15.1144;23551000;-37.71121827;145.03620270;85.18826580;3.71490270;0.00000000;4.74359608;3.36494179;
23551152;47.7;56.1;0;0;0;-84.7;44.27;18.98;0.11;44.25;8122;0.48;1.0989;0.1279;53.446;6.3603;633475;642035;58.9628;0;61;-1.792;13.383;23551055;1.0984;0.1279;53.4238;6.3603;0.774;368.263;19.9;43.71;4.148;3249.07;3292.98;1;23551055;0.0222907;0.061985;0.481039;0.7775;-0.720946;0.996982;36.8478;-22.7703;4.67015;23551000;-37.71121827;145.03620270;85.18826580;3.71490270;0.00000000;4.74359608;3.36494179;
23551206;46.8;56.1;0;0;0;-84.1;59.95;26.77;0.9;60.15;8032;0.509;1.0993;0.1279;53.4655;6.3603;633523;642083;96.3263;0;61;-3.033;13.761;23551152;1.0989;0.1279;53.446;6.3603;0.773;367.937;18.77;46;4.164;3249.45;3293.36;1;23551153;-0.0202749;0.0634061;0.466881;-0.114608;0.0132686;1.02227;-10.7502;8.09469;11.6139;23551000;-37.71121827;145.03620270;85.18826580;3.71490270;0.00000000;4.74359608;3.36494179;
23551306;47.7;56.2;0;0;0;-82.8;71.9;34.59;-0.7;71.6;8497;0.522;1.1002;0.1279;53.5075;6.3603;633600;642160;155.974;0;61;-4.682;14.656;23551206;1.0993;0.1279;53.4655;6.3603;0.772;367.117;29.37;70.36;4.119;3249.69;3293.6;1;23551206;0.00106035;0.0692452;0.45587;-0.684701;0.00888272;1.03833;-71.7195;-20.1871;-2.57449;23551000;-37.71121827;145.03620270;85.18826580;3.71490270;0.00000000;4.74359608;3.36494179;
23551355;48.1;56.2;0;0;0;-83;30.37;13.15;-0.29;30.25;8770;0.472;1.1004;0.1279;53.5186;6.3603;633654;642214;198.281;0;61;-0.884;13.872;23551306;1.1002;0.1279;53.5075;6.3603;0.767;364.89;16.26;37.58;4.363;3250.09;3294;1;23551306;0.00490916;0.0778247;0.463461;-0.189714;0.460016;1.03838;27.2751;4.89281;-0.505642;23551000;-37.71121827;145.03620270;85.18826580;3.71490270;0.00000000;4.74359608;3.36494179;
23551453;47.8;56.2;0;0;0;-83.6;24.97;10.41;0.21;24.99;8516;0.44;1.1007;0.1279;53.5304;6.3603;633730;642290;257.082;0;61;-0.473;12.944;23551355;1.1004;0.1279;53.5186;6.3603;0.767;365.131;10.78;27.49;4.497;3250.36;3294.27;1;23551355;0.00105208;0.062434;0.459917;0.25401;-0.311738;0.996836;9.19565;27.9509;4.36545;23551000;-37.71121827;145.03620270;85.18826580;3.71490270;0.00000000;4.74359608;3.36494179;
23551505;48.4;56.2;0;0;0;-83.7;26.73;10.52;-0.63;26.41;8338;0.437;1.1009;0.1279;53.5401;6.3603;633779;642339;295.868;0;61;-0.421;12.648;23551453;1.1007;0.1279;53.5304;6.3603;0.769;365.898;13.31;36.43;4.364;3250.75;3294.66;1;23551453;0.0309511;0.0579703;0.457764;-0.787041;0.58479;0.960109;-64.7636;3.24543;-0.718668;23551000;-37.71121827;145.03620270;85.18826580;3.71490270;0.00000000;4.74359608;3.36494179;
23551603;48.2;56.2;0;0;0;-84.7;44.56;19.18;0.09;44.53;8111;0.433;1.1014;0.1279;53.5626;6.3603;633852;642412;352.188;0;61;-1.848;13.238;23551506;1.1009;0.1279;53.5401;6.3603;0.77;366.349;6.53;17.84;4.276;3251.01;3294.91;1;23551506;0.0721364;0.0473673;0.45879;0.0894312;-0.0293698;0.952495;9.65341;-2.18508;-1.31849;23551000;-37.71121827;145.03620270;85.18826580;3.71490270;0.00000000;4.74359608;3.36494179;
23551657;46.2;56.3;0;0;0;-84.1;44.86;21.06;2.49;45.39;8149;0.596;1.1016;0.1279;53.575;6.3603;633901;642461;30.1506;0;61;-2.158;13.613;23551604;1.1014;0.1279;53.5639;6.3603;0.769;366.04;8.26;22.69;4.158;3251.38;3295.29;1;23551604;-0.00178616;0.0351715;0.472095;-0.524197;1.18287;1.00032;-1.4921;2.69571;-22.9856;23551000;-37.71121827;145.03620270;85.18826580;3.71490270;0.00000000;4.74359608;3.36494179;
23551723;47;56.3;0;0;0;-83.3;71.08;32.64;-1.06;70.78;8238;0.594;1.1022;0.1279;53.6024;6.3603;633950;642510;68.8225;0;61;-4.225;14.202;23551657;1.1016;0.1279;53.575;6.3603;0.769;365.819;42.42;90.76;4.179;3251.63;3295.53;1;23551657;-8.36595e-05;-0.0142809;0.477645;-0.430873;-1.57801;0.995088;26.426;-5.16007;-7.10089;23551000;-37.71121827;145.03620270;85.18826580;3.71490270;0.00000000;4.74359608;3.36494179;
23551806;45.9;56.3;0;0;0;-83.4;68.38;33.85;0.9;68.5;8625;0.671;1.103;0.1279;53.6399;6.3603;634029;642589;130.408;0;61;-4.515;15.068;23551723;1.1022;0.1279;53.6024;6.3603;0.766;364.448;31.7;63.83;4.229;3251.88;3295.79;1;23551724;0.0133724;0.0102778;0.496658;-1.17342;1.2676;1.05237;-100.348;-47.4553;-30.3703;23551000;-37.71121827;145.03620270;85.18826580;3.71490270;0.00000000;4.74359608;3.36494179;
23551895;47.6;56.3;0;0;0;-81;54.29;26.88;-1.35;53.91;9307;0.559;1.1038;0.1279;53.6744;6.3603;634114;642674;196.625;0;61;-3.533;15.167;23551806;1.103;0.1279;53.6399;6.3603;0.762;362.475;48.61;92.97;4.425;3252.28;3296.19;1;23551806;-0.00636924;-0.0147433;0.512348;-1.58541;0.347287;1.0982;38.7817;-46.5796;-38.1378;23551000;-37.71121827;145.03620270;85.18826580;3.71490270;0.00000000;4.74359608;3.36494179;
