$GPRMC,170130.56,A,2824.64918,N,08122.75706,W,0.075,,231125,,,A*65
$GPRMC,170132.08,A,2824.64924,N,08122.75702,W,0.058,,231125,,,A*68
$GPRMC,170132.12,A,2824.64924,N,08122.75702,W,0.065,,231125,,,A*6D
$GPRMC,170132.16,A,2824.64924,N,08122.75702,W,0.042,,231125,,,A*6C
$GPGGA,170132.16,2824.64924,N,08122.75702,W,1,04,4.27,47.8,M,-29.2,M,,*5A
$GPRMC,170132.20,A,2824.64924,N,08122.75702,W,0.006,,231125,,,A*69
$GPRMC,170132.24,A,2824.64925,N,08122.75703,W,0.077,,231125,,,A*6B
$GPRMC,170132.28,A,2824.64925,N,08122.75704,W,0.081,,231125,,,A*69
$GPRMC,170132.32,A,2824.64926,N,08122.75704,W,0.087,,231125,,,A*67
$GPRMC,170132.44,A,2824.64931,N,08122.75712,W,0.023,,231125,,,A*69
$GPRMC,170132.48,A,2824.64931,N,08122.75713,W,0.105,,231125,,,A*61
$GPRMC,170132.52,A,2824.64932,N,08122.75715,W,0.106,,231125,,,A*6C
$GPRMC,170132.56,A,2824.64932,N,08122.75716,W,0.042,,231125,,,A*6A
$GPGGA,170132.56,2824.64932,N,08122.75716,W,1,04,4.27,47.3,M,-29.2,M,,*57
$GPRMC,170132.60,A,2824.64933,N,08122.75716,W,0.145,,231125,,,A*68
$GPRMC,170132.64,A,2824.64934,N,08122.75717,W,0.139,,231125,,,A*61
$GPRMC,170132.76,A,2824.64936,N,08122.75724,W,0.048,,231125,,,A*67
$GPRMC,170132.80,A,2824.64937,N,08122.75727,W,0.074,,231125,,,A*63
$GPRMC,170132.84,A,2824.64938,N,08122.75729,W,0.086,,231125,,,A*6B
$GPRMC,170132.88,A,2824.64938,N,08122.75729,W,0.095,,231125,,,A*65
$GPRMC,170132.92,A,2824.64939,N,08122.75727,W,0.079,,231125,,,A*63
$GPRMC,170132.96,A,2824.64939,N,08122.75725,W,0.050,,231125,,,A*6E
$GPGGA,170132.96,2824.64939,N,08122.75725,W,1,04,4.27,46.8,M,-29.2,M,,*5A
$GPRMC,170133.00,A,2824.64941,N,08122.75723,W,0.131,,231125,,,A*6F
$GPRMC,170133.04,A,2824.64941,N,08122.75720,W,0.105,,231125,,,A*6F
$GPRMC,170133.08,A,2824.64942,N,08122.75719,W,0.074,,231125,,,A*6D
$GPRMC,170133.12,A,2824.64943,N,08122.75717,W,0.119,,231125,,,A*63
$GPRMC,170133.16,A,2824.64943,N,08122.75715,W,0.096,,231125,,,A*63
$GPRMC,170133.20,A,2824.64943,N,08122.75713,W,0.126,,231125,,,A*6A
$GPRMC,170133.24,A,2824.64943,N,08122.75711,W,0.124,,231125,,,A*6E
$GPRMC,170133.28,A,2824.64943,N,08122.75710,W,0.051,,231125,,,A*60
$GPRMC,170133.32,A,2824.64943,N,08122.75709,W,0.129,,231125,,,A*6D
$GPRMC,170133.40,A,2824.64944,N,08122.75708,W,0.037,,231125,,,A*60
$GPRMC,170133.44,A,2824.64944,N,08122.75707,W,0.092,,231125,,,A*64
$GPRMC,170133.48,A,2824.64944,N,08122.75707,W,0.099,,231125,,,A*63
$GPRMC,170133.52,A,2824.64945,N,08122.75708,W,0.027,,231125,,,A*63
$GPRMC,170133.56,A,2824.64945,N,08122.75709,W,0.028,,231125,,,A*69
$GPRMC,170133.60,A,2824.64945,N,08122.75710,W,0.071,,231125,,,A*68
$GPRMC,170133.64,A,2824.64946,N,08122.75710,W,0.156,,231125,,,A*6B
$GPRMC,170133.76,A,2824.64946,N,08122.75709,W,0.106,,231125,,,A*65
$GPGGA,170133.76,2824.64946,N,08122.75709,W,1,04,4.28,46.9,M,-29.2,M,,*5D
$GPRMC,170133.80,A,2824.64946,N,08122.75709,W,0.081,,231125,,,A*62
$GPRMC,170133.84,A,2824.64946,N,08122.75708,W,0.014,,231125,,,A*6B
$GPRMC,170133.88,A,2824.64945,N,08122.75708,W,0.082,,231125,,,A*6B
$GPRMC,170133.92,A,2824.64946,N,08122.75708,W,0.078,,231125,,,A*66
$GPRMC,170133.96,A,2824.64946,N,08122.75707,W,0.082,,231125,,,A*68
$GPRMC,170134.00,A,2824.64946,N,08122.75707,W,0.089,,231125,,,A*6B
$GPRMC,170134.04,A,2824.64947,N,08122.75705,W,0.149,,231125,,,A*61
$GPRMC,170134.08,A,2824.64947,N,08122.75704,W,0.149,,231125,,,A*6C
$GPRMC,170134.12,A,2824.64947,N,08122.75704,W,0.050,,231125,,,A*6E
$GPRMC,170134.16,A,2824.64947,N,08122.75704,W,0.060,,231125,,,A*69
$GPGGA,170134.16,2824.64947,N,08122.75704,W,1,04,4.28,46.9,M,-29.2,M,,*50
$GPRMC,170134.20,A,2824.64947,N,08122.75704,W,0.063,,231125,,,A*6F
$GPRMC,170134.24,A,2824.64947,N,08122.75703,W,0.054,,231125,,,A*68
$GPRMC,170134.28,A,2824.64948,N,08122.75702,W,0.040,,231125,,,A*6F
$GPRMC,170134.32,A,2824.64949,N,08122.75700,W,0.088,,231125,,,A*63
$GPRMC,170134.44,A,2824.64949,N,08122.75696,W,0.106,,231125,,,A*6B
$GPRMC,170134.48,A,2824.64949,N,08122.75695,W,0.051,,231125,,,A*67
$GPRMC,170134.52,A,2824.64949,N,08122.75695,W,0.082,,231125,,,A*62
$GPRMC,170134.56,A,2824.64949,N,08122.75695,W,0.093,,231125,,,A*66
$GPGGA,170134.56,2824.64949,N,08122.75695,W,1,04,4.28,46.9,M,-29.2,M,,*53
$GPRMC,170134.60,A,2824.64950,N,08122.75695,W,0.025,,231125,,,A*66
$GPRMC,170134.64,A,2824.64950,N,08122.75694,W,0.158,,231125,,,A*68
$GPRMC,170134.76,A,2824.64951,N,08122.75694,W,0.040,,231125,,,A*62
$GPRMC,170134.80,A,2824.64950,N,08122.75694,W,0.196,,231125,,,A*60
$GPRMC,170134.84,A,2824.64950,N,08122.75694,W,0.195,,231125,,,A*67
$GPRMC,170134.88,A,2824.64950,N,08122.75695,W,0.178,,231125,,,A*69
$GPRMC,170134.92,A,2824.64951,N,08122.75696,W,0.231,,231125,,,A*6E
$GPRMC,170134.96,A,2824.64952,N,08122.75697,W,0.277,,231125,,,A*6A
$GPGGA,170134.96,2824.64952,N,08122.75697,W,1,04,4.28,46.8,M,-29.2,M,,*56
$GPRMC,170135.00,A,2824.64952,N,08122.75698,W,0.371,,231125,,,A*6C
$GPRMC,170135.04,A,2824.64952,N,08122.75697,W,0.313,,231125,,,A*63
$GPRMC,170135.08,A,2824.64952,N,08122.75697,W,0.346,,231125,,,A*6F
$GPRMC,170135.12,A,2824.64953,N,08122.75697,W,0.387,,231125,,,A*68
$GPRMC,170135.16,A,2824.64953,N,08122.75696,W,0.321,,231125,,,A*61
$GPRMC,170135.20,A,2824.64953,N,08122.75697,W,0.361,,231125,,,A*61
$GPRMC,170135.24,A,2824.64953,N,08122.75697,W,0.329,,231125,,,A*69
$GPRMC,170135.28,A,2824.64953,N,08122.75696,W,0.279,,231125,,,A*60
$GPRMC,170135.32,A,2824.64953,N,08122.75696,W,0.324,,231125,,,A*62
$GPRMC,170135.44,A,2824.64954,N,08122.75695,W,0.356,,231125,,,A*62
$GPRMC,170135.48,A,2824.64954,N,08122.75694,W,0.314,,231125,,,A*69
$GPRMC,170135.52,A,2824.64955,N,08122.75692,W,0.308,,231125,,,A*68
$GPRMC,170135.56,A,2824.64955,N,08122.75691,W,0.332,,231125,,,A*66
$GPRMC,170135.60,A,2824.64955,N,08122.75689,W,0.332,,231125,,,A*6A
$GPRMC,170135.64,A,2824.64956,N,08122.75688,W,0.337,,231125,,,A*69
$GPRMC,170135.76,A,2824.64957,N,08122.75686,W,0.465,326.83,231125,,,A*77
$GPGGA,170135.76,2824.64957,N,08122.75686,W,1,04,4.28,46.9,M,-29.2,M,,*5D
$GPRMC,170135.80,A,2824.64958,N,08122.75685,W,0.517,314.30,231125,,,A*7F
$GPRMC,170135.84,A,2824.64958,N,08122.75684,W,0.568,307.52,231125,,,A*74
$GPRMC,170135.88,A,2824.64959,N,08122.75683,W,0.509,302.72,231125,,,A*7E
$GPRMC,170135.92,A,2824.64959,N,08122.75682,W,0.422,,231125,,,A*66
$GPRMC,170135.96,A,2824.64959,N,08122.75681,W,0.428,,231125,,,A*6B
$GPRMC,170136.00,A,2824.64959,N,08122.75681,W,0.549,294.50,231125,,,A*75
$GPRMC,170136.04,A,2824.64959,N,08122.75680,W,0.609,291.37,231125,,,A*73
$GPRMC,170136.08,A,2824.64959,N,08122.75680,W,0.651,287.47,231125,,,A*72
$GPRMC,170136.12,A,2824.64960,N,08122.75680,W,0.645,288.03,231125,,,A*79
$GPRMC,170136.16,A,2824.64960,N,08122.75680,W,0.608,286.92,231125,,,A*72
$GPGGA,170136.16,2824.64960,N,08122.75680,W,1,04,4.28,47.0,M,-29.2,M,,*52
$GPRMC,170136.20,A,2824.64960,N,08122.75679,W,0.566,281.40,231125,,,A*72
$GPRMC,170136.24,A,2824.64959,N,08122.75678,W,0.518,275.16,231125,,,A*7C
$GPRMC,170136.28,A,2824.64959,N,08122.75679,W,0.591,273.21,231125,,,A*72
$GPRMC,170136.32,A,2824.64960,N,08122.75679,W,0.623,275.38,231125,,,A*77
$GPRMC,170136.44,A,2824.64961,N,08122.75680,W,0.794,288.15,231125,,,A*71
$GPRMC,170136.48,A,2824.64961,N,08122.75681,W,0.817,290.17,231125,,,A*73
$GPRMC,170136.52,A,2824.64961,N,08122.75681,W,0.744,288.44,231125,,,A*7E
$GPRMC,170136.56,A,2824.64961,N,08122.75682,W,0.667,283.73,231125,,,A*76
$GPGGA,170136.56,2824.64961,N,08122.75682,W,1,04,4.28,47.0,M,-29.2,M,,*55
$GPRMC,170136.60,A,2824.64960,N,08122.75682,W,0.640,277.18,231125,,,A*71
$GPRMC,170136.64,A,2824.64960,N,08122.75682,W,0.606,273.58,231125,,,A*77
$GPRMC,170136.68,A,2824.64961,N,08122.75683,W,0.666,278.64,231125,,,A*79
$GPRMC,170136.72,A,2824.64961,N,08122.75683,W,0.746,280.91,231125,,,A*7C
$GPRMC,170136.76,A,2824.64962,N,08122.75684,W,0.799,283.05,231125,,,A*70
$GPRMC,170136.80,A,2824.64962,N,08122.75685,W,0.803,286.26,231125,,,A*70
$GPRMC,170136.84,A,2824.64962,N,08122.75685,W,0.816,288.64,231125,,,A*78
$GPRMC,170136.88,A,2824.64963,N,08122.75685,W,0.783,290.88,231125,,,A*7D
$GPRMC,170136.92,A,2824.64963,N,08122.75685,W,0.793,294.60,231125,,,A*75
$GPRMC,170136.96,A,2824.64963,N,08122.75686,W,0.893,293.70,231125,,,A*7B
$GPGGA,170136.96,2824.64963,N,08122.75686,W,1,04,4.28,47.0,M,-29.2,M,,*5F
$GPRMC,170137.00,A,2824.64963,N,08122.75686,W,0.892,290.30,231125,,,A*73
$GPRMC,170137.04,A,2824.64963,N,08122.75687,W,0.849,287.68,231125,,,A*7B
$GPRMC,170137.08,A,2824.64963,N,08122.75687,W,0.736,286.22,231125,,,A*7F
$GPRMC,170137.12,A,2824.64963,N,08122.75688,W,0.660,283.06,231125,,,A*7A
$GPRMC,170137.16,A,2824.64963,N,08122.75689,W,0.645,278.65,231125,,,A*79
$GPRMC,170137.20,A,2824.64963,N,08122.75691,W,0.755,274.26,231125,,,A*7E
$GPRMC,170137.24,A,2824.64964,N,08122.75693,W,0.786,278.16,231125,,,A*7E
$GPRMC,170137.28,A,2824.64964,N,08122.75695,W,0.861,282.97,231125,,,A*7E
$GPRMC,170137.32,A,2824.64965,N,08122.75696,W,0.905,286.21,231125,,,A*7D
$GPRMC,170137.44,A,2824.64967,N,08122.75700,W,0.939,292.44,231125,,,A*79
$GPRMC,170137.48,A,2824.64967,N,08122.75701,W,0.929,291.98,231125,,,A*77
$GPRMC,170137.52,A,2824.64967,N,08122.75701,W,0.944,290.84,231125,,,A*7B
$GPRMC,170137.56,A,2824.64968,N,08122.75702,W,0.953,291.41,231125,,,A*7D
$GPRMC,170137.60,A,2824.64968,N,08122.75703,W,0.973,290.73,231125,,,A*7B
$GPRMC,170137.64,A,2824.64968,N,08122.75704,W,0.899,289.01,231125,,,A*70
$GPRMC,170137.68,A,2824.64969,N,08122.75704,W,0.791,290.00,231125,,,A*73
$GPRMC,170137.72,A,2824.64969,N,08122.75705,W,0.832,289.65,231125,,,A*74
$GPRMC,170137.76,A,2824.64969,N,08122.75705,W,0.885,290.56,231125,,,A*74
$GPGGA,170137.76,2824.64969,N,08122.75705,W,1,04,4.28,46.7,M,-29.2,M,,*56
$GPRMC,170137.80,A,2824.64970,N,08122.75706,W,0.900,295.10,231125,,,A*7D
$GPRMC,170137.84,A,2824.64971,N,08122.75707,W,0.904,300.06,231125,,,A*77
$GPRMC,170137.88,A,2824.64972,N,08122.75708,W,0.843,303.16,231125,,,A*77
$GPRMC,170137.92,A,2824.64972,N,08122.75708,W,0.740,305.52,231125,,,A*76
$GPRMC,170137.96,A,2824.64973,N,08122.75708,W,0.684,307.94,231125,,,A*72
$GPRMC,170138.00,A,2824.64973,N,08122.75708,W,0.676,304.73,231125,,,A*75
$GPRMC,170138.12,A,2824.64973,N,08122.75712,W,1.047,290.40,231125,,,A*74
$GPRMC,170138.16,A,2824.64974,N,08122.75713,W,0.971,290.08,231125,,,A*77
$GPGGA,170138.16,2824.64974,N,08122.75713,W,1,04,4.28,46.6,M,-29.2,M,,*55
$GPRMC,170138.20,A,2824.64974,N,08122.75714,W,0.939,289.42,231125,,,A*7F
$GPRMC,170138.24,A,2824.64974,N,08122.75715,W,0.846,289.79,231125,,,A*7B
$GPRMC,170138.28,A,2824.64975,N,08122.75715,W,0.863,292.84,231125,,,A*79
$GPRMC,170138.32,A,2824.64976,N,08122.75716,W,0.847,298.24,231125,,,A*74
$GPRMC,170138.44,A,2824.64977,N,08122.75718,W,0.911,298.52,231125,,,A*79
$GPRMC,170138.48,A,2824.64978,N,08122.75720,W,1.066,297.13,231125,,,A*73
$GPRMC,170138.52,A,2824.64979,N,08122.75722,W,1.158,294.42,231125,,,A*70
$GPRMC,170138.56,A,2824.64979,N,08122.75724,W,1.120,291.43,231125,,,A*79
$GPGGA,170138.56,2824.64979,N,08122.75724,W,1,04,4.29,46.5,M,-29.2,M,,*5A
$GPRMC,170138.60,A,2824.64980,N,08122.75725,W,1.015,291.12,231125,,,A*78
$GPRMC,170138.64,A,2824.64981,N,08122.75726,W,0.935,291.82,231125,,,A*7D
$GPRMC,170138.68,A,2824.64982,N,08122.75728,W,0.971,292.52,231125,,,A*72
$GPRMC,170138.72,A,2824.64983,N,08122.75729,W,1.009,292.65,231125,,,A*7A
$GPRMC,170138.76,A,2824.64983,N,08122.75731,W,1.047,291.08,231125,,,A*75
$GPRMC,170138.80,A,2824.64984,N,08122.75733,W,1.080,288.42,231125,,,A*74
$GPRMC,170138.84,A,2824.64985,N,08122.75735,W,1.125,288.21,231125,,,A*7C
$GPRMC,170138.88,A,2824.64986,N,08122.75738,W,1.126,292.44,231125,,,A*75
$GPRMC,170138.92,A,2824.64987,N,08122.75739,W,1.067,296.16,231125,,,A*79
$GPRMC,170138.96,A,2824.64988,N,08122.75741,W,1.050,298.38,231125,,,A*7B
$GPGGA,170138.96,2824.64988,N,08122.75741,W,1,04,4.29,46.2,M,-29.2,M,,*5C
$GPRMC,170139.00,A,2824.64989,N,08122.75742,W,1.046,297.45,231125,,,A*75
$GPRMC,170139.12,A,2824.64990,N,08122.75745,W,0.955,291.91,231125,,,A*7C
$GPRMC,170139.16,A,2824.64990,N,08122.75747,W,0.914,289.12,231125,,,A*7D
$GPRMC,170139.20,A,2824.64991,N,08122.75750,W,0.829,288.32,231125,,,A*73
$GPRMC,170139.24,A,2824.64991,N,08122.75751,W,0.730,289.08,231125,,,A*79
$GPRMC,170139.28,A,2824.64992,N,08122.75754,W,0.774,289.15,231125,,,A*7F
$GPRMC,170139.32,A,2824.64993,N,08122.75757,W,0.824,291.95,231125,,,A*7D
$GPRMC,170139.44,A,2824.64993,N,08122.75764,W,0.658,282.18,231125,,,A*7E
$GPRMC,170139.48,A,2824.64993,N,08122.75767,W,0.679,269.96,231125,,,A*71
$GPRMC,170139.52,A,2824.64994,N,08122.75770,W,0.661,271.48,231125,,,A*78
$GPRMC,170139.56,A,2824.64996,N,08122.75774,W,0.720,285.04,231125,,,A*7D
$GPRMC,170139.60,A,2824.64998,N,08122.75775,W,0.835,300.18,231125,,,A*7D
$GPRMC,170139.64,A,2824.65000,N,08122.75773,W,0.913,313.54,231125,,,A*79
$GPRMC,170139.68,A,2824.65002,N,08122.75777,W,1.154,313.27,231125,,,A*7D
$GPRMC,170139.72,A,2824.65003,N,08122.75779,W,1.103,310.95,231125,,,A*71
$GPRMC,170139.76,A,2824.65003,N,08122.75781,W,0.839,309.73,231125,,,A*73
$GPGGA,170139.76,2824.65003,N,08122.75781,W,1,04,4.29,45.2,M,-29.2,M,,*57
$GPRMC,170139.80,A,2824.65004,N,08122.75781,W,0.665,,231125,,,A*6A
$GPRMC,170139.84,A,2824.65005,N,08122.75779,W,0.578,,231125,,,A*67
$GPRMC,170139.88,A,2824.65007,N,08122.75780,W,0.715,317.29,231125,,,A*76
$GPRMC,170139.92,A,2824.65008,N,08122.75783,W,0.881,318.37,231125,,,A*73
$GPRMC,170139.96,A,2824.65009,N,08122.75785,W,0.781,316.72,231125,,,A*70
$GPRMC,170140.00,A,2824.65009,N,08122.75785,W,0.545,,231125,,,A*64
$GPRMC,170140.12,A,2824.65011,N,08122.75787,W,0.584,313.44,231125,,,A*7E
$GPRMC,170140.16,A,2824.65012,N,08122.75789,W,0.569,310.16,231125,,,A*70
$GPGGA,170140.16,2824.65012,N,08122.75789,W,1,04,4.29,44.9,M,-29.2,M,,*5D
$GPRMC,170140.20,A,2824.65012,N,08122.75789,W,0.465,,231125,,,A*63
$GPRMC,170140.24,A,2824.65012,N,08122.75790,W,0.380,,231125,,,A*63
$GPRMC,170140.28,A,2824.65013,N,08122.75792,W,0.589,304.67,231125,,,A*7B
$GPRMC,170140.32,A,2824.65014,N,08122.75793,W,0.619,299.68,231125,,,A*76
$GPRMC,170140.44,A,2824.65015,N,08122.75795,W,0.619,292.27,231125,,,A*70
$GPRMC,170140.48,A,2824.65016,N,08122.75796,W,0.654,294.05,231125,,,A*73
$GPRMC,170140.52,A,2824.65016,N,08122.75796,W,0.586,296.55,231125,,,A*73
$GPRMC,170140.56,A,2824.65017,N,08122.75796,W,0.575,301.38,231125,,,A*7E
$GPGGA,170140.56,2824.65017,N,08122.75796,W,1,04,4.29,44.7,M,-29.2,M,,*5C
$GPRMC,170140.60,A,2824.65018,N,08122.75796,W,0.512,,231125,,,A*62
$GPRMC,170140.64,A,2824.65019,N,08122.75797,W,0.480,,231125,,,A*6C
$GPRMC,170140.68,A,2824.65019,N,08122.75797,W,0.291,,231125,,,A*66
$GPRMC,170140.72,A,2824.65018,N,08122.75799,W,0.231,,231125,,,A*68
$GPRMC,170140.76,A,2824.65019,N,08122.75801,W,0.356,,231125,,,A*63
$GPRMC,170140.80,A,2824.65019,N,08122.75803,W,0.411,,231125,,,A*6C
$GPRMC,170140.84,A,2824.65020,N,08122.75803,W,0.400,,231125,,,A*62
$GPRMC,170140.88,A,2824.65021,N,08122.75804,W,0.459,,231125,,,A*64
$GPRMC,170140.92,A,2824.65022,N,08122.75806,W,0.568,,231125,,,A*6D
$GPRMC,170140.96,A,2824.65022,N,08122.75807,W,0.531,,231125,,,A*64
$GPGGA,170140.96,2824.65022,N,08122.75807,W,1,04,4.29,44.4,M,-29.2,M,,*52
$GPRMC,170141.00,A,2824.65022,N,08122.75809,W,0.455,,231125,,,A*67
$GPRMC,170141.12,A,2824.65023,N,08122.75811,W,0.194,,231125,,,A*64
$GPRMC,170141.16,A,2824.65024,N,08122.75812,W,0.219,,231125,,,A*62
$GPRMC,170141.20,A,2824.65024,N,08122.75813,W,0.253,,231125,,,A*68
$GPRMC,170141.24,A,2824.65025,N,08122.75814,W,0.294,,231125,,,A*61
$GPRMC,170141.28,A,2824.65025,N,08122.75816,W,0.283,,231125,,,A*69
$GPRMC,170141.32,A,2824.65025,N,08122.75818,W,0.289,,231125,,,A*66
$GPRMC,170141.36,A,2824.65025,N,08122.75820,W,0.267,,231125,,,A*69
$GPRMC,170141.40,A,2824.65025,N,08122.75819,W,0.234,,231125,,,A*64
$GPRMC,170141.44,A,2824.65027,N,08122.75820,W,0.275,,231125,,,A*6D
$GPRMC,170141.48,A,2824.65027,N,08122.75820,W,0.134,,231125,,,A*67
$GPRMC,170141.52,A,2824.65025,N,08122.75820,W,0.190,,231125,,,A*60
$GPRMC,170141.56,A,2824.65023,N,08122.75820,W,0.411,,231125,,,A*6E
$GPRMC,170141.60,A,2824.65023,N,08122.75820,W,0.450,,231125,,,A*6E
$GPRMC,170141.64,A,2824.65024,N,08122.75820,W,0.290,,231125,,,A*67
$GPRMC,170141.68,A,2824.65025,N,08122.75820,W,0.107,,231125,,,A*67
$GPRMC,170141.72,A,2824.65026,N,08122.75821,W,0.177,,231125,,,A*69
$GPRMC,170141.76,A,2824.65026,N,08122.75822,W,0.242,,231125,,,A*6B
$GPGGA,170141.76,2824.65026,N,08122.75822,W,1,04,4.29,43.8,M,-29.2,M,,*55
$GPRMC,170141.80,A,2824.65026,N,08122.75823,W,0.313,,231125,,,A*66
$GPRMC,170141.84,A,2824.65027,N,08122.75823,W,0.291,,231125,,,A*68
$GPRMC,170141.88,A,2824.65027,N,08122.75823,W,0.239,,231125,,,A*66
$GPRMC,170141.92,A,2824.65028,N,08122.75823,W,0.341,,231125,,,A*6C
$GPRMC,170141.96,A,2824.65027,N,08122.75824,W,0.314,,231125,,,A*60
$GPRMC,170142.00,A,2824.65026,N,08122.75823,W,0.288,,231125,,,A*6E
$GPRMC,170142.12,A,2824.65027,N,08122.75824,W,0.257,,231125,,,A*69
$GPRMC,170142.16,A,2824.65027,N,08122.75822,W,0.275,,231125,,,A*6B
$GPGGA,170142.16,2824.65027,N,08122.75822,W,1,04,4.29,43.8,M,-29.2,M,,*51
$GPRMC,170142.20,A,2824.65028,N,08122.75820,W,0.229,,231125,,,A*6A
$GPRMC,170142.24,A,2824.65028,N,08122.75818,W,0.184,,231125,,,A*61
$GPRMC,170142.28,A,2824.65029,N,08122.75816,W,0.174,,231125,,,A*6D
$GPRMC,170142.32,A,2824.65028,N,08122.75814,W,0.079,,231125,,,A*69
$GPRMC,170142.36,A,2824.65028,N,08122.75813,W,0.006,,231125,,,A*62
$GPRMC,170142.40,A,2824.65028,N,08122.75813,W,0.050,,231125,,,A*60
$GPRMC,170142.44,A,2824.65029,N,08122.75812,W,0.036,,231125,,,A*64
$GPRMC,170142.48,A,2824.65029,N,08122.75811,W,0.014,,231125,,,A*6B
$GPRMC,170142.52,A,2824.65029,N,08122.75809,W,0.029,,231125,,,A*67
$GPRMC,170142.56,A,2824.65029,N,08122.75808,W,0.053,,231125,,,A*6F
$GPGGA,170142.56,2824.65029,N,08122.75808,W,1,04,4.29,43.9,M,-29.2,M,,*52
$GPRMC,170142.60,A,2824.65030,N,08122.75807,W,0.092,,231125,,,A*60
$GPRMC,170142.64,A,2824.65031,N,08122.75806,W,0.134,,231125,,,A*69
$GPRMC,170142.68,A,2824.65030,N,08122.75804,W,0.117,,231125,,,A*67
$GPRMC,170142.76,A,2824.65029,N,08122.75802,W,0.148,,231125,,,A*6C
$GPRMC,170142.80,A,2824.65030,N,08122.75804,W,0.398,,231125,,,A*64
$GPRMC,170142.84,A,2824.65031,N,08122.75806,W,0.425,,231125,,,A*62
$GPRMC,170142.88,A,2824.65031,N,08122.75805,W,0.198,,231125,,,A*6E
$GPRMC,170142.92,A,2824.65029,N,08122.75802,W,0.231,,231125,,,A*6B
$GPRMC,170142.96,A,2824.65027,N,08122.75799,W,0.480,,231125,,,A*60
$GPGGA,170142.96,2824.65027,N,08122.75799,W,1,04,4.29,44.0,M,-29.2,M,,*59
$GPRMC,170143.00,A,2824.65025,N,08122.75798,W,0.580,,231125,,,A*6C
$GPRMC,170143.12,A,2824.65025,N,08122.75800,W,0.320,,231125,,,A*6D
$GPRMC,170143.16,A,2824.65025,N,08122.75799,W,0.202,,231125,,,A*67
$GPRMC,170143.20,A,2824.65025,N,08122.75800,W,0.265,,231125,,,A*6C
$GPRMC,170143.24,A,2824.65025,N,08122.75800,W,0.278,,231125,,,A*64
$GPRMC,170143.28,A,2824.65025,N,08122.75800,W,0.352,,231125,,,A*61
$GPRMC,170143.32,A,2824.65025,N,08122.75801,W,0.364,,231125,,,A*6E
$GPRMC,170143.36,A,2824.65025,N,08122.75801,W,0.299,,231125,,,A*69
$GPRMC,170143.44,A,2824.65025,N,08122.75801,W,0.242,,231125,,,A*6A
$GPRMC,170143.48,A,2824.65025,N,08122.75802,W,0.317,,231125,,,A*64
$GPRMC,170143.52,A,2824.65026,N,08122.75802,W,0.294,,231125,,,A*66
$GPRMC,170143.56,A,2824.65027,N,08122.75803,W,0.239,,231125,,,A*65
$GPRMC,170143.60,A,2824.65027,N,08122.75804,W,0.212,,231125,,,A*6E
$GPRMC,170143.64,A,2824.65027,N,08122.75804,W,0.218,,231125,,,A*60
$GPRMC,170143.68,A,2824.65027,N,08122.75804,W,0.235,,231125,,,A*63
$GPGGA,170143.76,2824.65028,N,08122.75806,W,1,04,4.30,43.7,M,-29.2,M,,*58
$GPRMC,170143.80,A,2824.65028,N,08122.75808,W,0.137,,231125,,,A*67
$GPRMC,170143.84,A,2824.65028,N,08122.75808,W,0.139,,231125,,,A*6D
$GPRMC,170143.88,A,2824.65027,N,08122.75809,W,0.165,,231125,,,A*66
$GPRMC,170143.92,A,2824.65028,N,08122.75810,W,0.103,,231125,,,A*6A
$GPRMC,170143.96,A,2824.65028,N,08122.75810,W,0.158,,231125,,,A*60
$GPRMC,170144.00,A,2824.65028,N,08122.75810,W,0.187,,231125,,,A*6A
$GPRMC,170144.12,A,2824.65028,N,08122.75812,W,0.046,,231125,,,A*67
$GPRMC,170144.16,A,2824.65028,N,08122.75813,W,0.108,,231125,,,A*69
$GPGGA,170144.16,2824.65028,N,08122.75813,W,1,04,4.30,43.5,M,-29.2,M,,*5F
$GPRMC,170144.20,A,2824.65028,N,08122.75814,W,0.105,,231125,,,A*66
$GPRMC,170144.24,A,2824.65028,N,08122.75814,W,0.037,,231125,,,A*62
$GPRMC,170144.28,A,2824.65028,N,08122.75813,W,0.095,,231125,,,A*61
$GPRMC,170144.32,A,2824.65027,N,08122.75814,W,0.131,,231125,,,A*6D
$GPRMC,170144.36,A,2824.65028,N,08122.75814,W,0.107,,231125,,,A*63
$GPRMC,170144.40,A,2824.65028,N,08122.75815,W,0.118,,231125,,,A*6D
$GPRMC,170144.44,A,2824.65028,N,08122.75814,W,0.115,,231125,,,A*65
$GPRMC,170144.48,A,2824.65028,N,08122.75814,W,0.134,,231125,,,A*6A
$GPRMC,170144.52,A,2824.65028,N,08122.75813,W,0.167,,231125,,,A*60
$GPRMC,170144.56,A,2824.65027,N,08122.75811,W,0.192,,231125,,,A*63
$GPGGA,170144.56,2824.65027,N,08122.75811,W,1,04,4.30,43.5,M,-29.2,M,,*56
$GPRMC,170144.60,A,2824.65027,N,08122.75812,W,0.093,,231125,,,A*65
$GPRMC,170144.64,A,2824.65027,N,08122.75813,W,0.113,,231125,,,A*69
$GPRMC,170144.68,A,2824.65026,N,08122.75814,W,0.111,,231125,,,A*61
$GPRMC,170144.80,A,2824.65026,N,08122.75814,W,0.045,,231125,,,A*67
$GPRMC,170144.84,A,2824.65025,N,08122.75814,W,0.097,,231125,,,A*6F
$GPRMC,170144.88,A,2824.65025,N,08122.75813,W,0.074,,231125,,,A*69
$GPRMC,170144.92,A,2824.65025,N,08122.75814,W,0.112,,231125,,,A*64
$GPRMC,170144.96,A,2824.65026,N,08122.75815,W,0.103,,231125,,,A*62
$GPGGA,170144.96,2824.65026,N,08122.75815,W,1,04,4.30,43.4,M,-29.2,M,,*5E
$GPRMC,170145.00,A,2824.65025,N,08122.75816,W,0.094,,231125,,,A*63
$GPRMC,170145.12,A,2824.65024,N,08122.75813,W,0.205,,231125,,,A*6E
$GPRMC,170145.16,A,2824.65023,N,08122.75812,W,0.258,,231125,,,A*64
$GPRMC,170145.20,A,2824.65023,N,08122.75813,W,0.234,,231125,,,A*6A
$GPRMC,170145.24,A,2824.65022,N,08122.75814,W,0.215,,231125,,,A*6B
$GPRMC,170145.28,A,2824.65021,N,08122.75814,W,0.297,,231125,,,A*6E
$GPRMC,170145.32,A,2824.65021,N,08122.75813,W,0.261,,231125,,,A*6B
$GPRMC,170145.36,A,2824.65021,N,08122.75815,W,0.246,,231125,,,A*6C
$GPGGA,170145.36,2824.65021,N,08122.75815,W,1,04,4.30,43.3,M,-29.2,M,,*55
$GPRMC,170145.40,A,2824.65020,N,08122.75816,W,0.273,,231125,,,A*69
$GPRMC,170145.44,A,2824.65020,N,08122.75816,W,0.235,,231125,,,A*6F
$GPRMC,170145.48,A,2824.65019,N,08122.75815,W,0.276,,231125,,,A*6D
$GPRMC,170145.52,A,2824.65018,N,08122.75815,W,0.332,,231125,,,A*66
$GPRMC,170145.56,A,2824.65019,N,08122.75815,W,0.361,,231125,,,A*65
$GPRMC,170145.60,A,2824.65019,N,08122.75816,W,0.365,,231125,,,A*67
$GPRMC,170145.64,A,2824.65018,N,08122.75816,W,0.272,,231125,,,A*65
$GPRMC,170145.68,A,2824.65017,N,08122.75817,W,0.271,,231125,,,A*64
$GPGGA,170145.76,2824.65017,N,08122.75817,W,1,04,4.30,43.3,M,-29.2,M,,*56
$GPRMC,170145.80,A,2824.65016,N,08122.75816,W,0.412,,231125,,,A*61
$GPRMC,170145.84,A,2824.65016,N,08122.75815,W,0.434,,231125,,,A*62
$GPRMC,170145.88,A,2824.65015,N,08122.75815,W,0.404,,231125,,,A*6E
$GPRMC,170145.92,A,2824.65015,N,08122.75815,W,0.372,,231125,,,A*63
$GPRMC,170145.96,A,2824.65015,N,08122.75815,W,0.366,,231125,,,A*62
$GPRMC,170146.00,A,2824.65015,N,08122.75815,W,0.376,,231125,,,A*6F
$GPRMC,170146.12,A,2824.65013,N,08122.75815,W,0.345,,231125,,,A*6A
$GPRMC,170146.16,A,2824.65011,N,08122.75814,W,0.407,,231125,,,A*6C
$GPGGA,170146.16,2824.65011,N,08122.75814,W,1,04,4.30,43.3,M,-29.2,M,,*56
$GPRMC,170146.20,A,2824.65011,N,08122.75814,W,0.461,,231125,,,A*69
$GPRMC,170146.24,A,2824.65011,N,08122.75815,W,0.360,,231125,,,A*6A
$GPRMC,170146.28,A,2824.65011,N,08122.75816,W,0.342,,231125,,,A*65
$GPRMC,170146.32,A,2824.65010,N,08122.75814,W,0.387,,231125,,,A*64
$GPRMC,170146.36,A,2824.65010,N,08122.75814,W,0.351,,231125,,,A*6B
$GPRMC,170146.40,A,2824.65010,N,08122.75815,W,0.296,,231125,,,A*61
$GPRMC,170146.44,A,2824.65009,N,08122.75815,W,0.283,,231125,,,A*69
$GPRMC,170146.48,A,2824.65009,N,08122.75814,W,0.320,,231125,,,A*6C
$GPRMC,170146.52,A,2824.65009,N,08122.75814,W,0.334,,231125,,,A*62
$GPRMC,170146.56,A,2824.65009,N,08122.75815,W,0.260,,231125,,,A*67
$GPGGA,170146.56,2824.65009,N,08122.75815,W,1,04,4.30,43.2,M,-29.2,M,,*5B
$GPRMC,170146.60,A,2824.65009,N,08122.75816,W,0.279,,231125,,,A*69
$GPRMC,170146.64,A,2824.65009,N,08122.75816,W,0.254,,231125,,,A*62
$GPRMC,170146.68,A,2824.65010,N,08122.75816,W,0.295,,231125,,,A*6B
$GPRMC,170146.80,A,2824.65010,N,08122.75816,W,0.316,,231125,,,A*67
$GPRMC,170146.84,A,2824.65010,N,08122.75817,W,0.301,,231125,,,A*64
$GPRMC,170146.88,A,2824.65010,N,08122.75816,W,0.360,,231125,,,A*6E
$GPRMC,170146.92,A,2824.65011,N,08122.75816,W,0.345,,231125,,,A*63
$GPRMC,170146.96,A,2824.65011,N,08122.75815,W,0.315,,231125,,,A*61
$GPGGA,170146.96,2824.65011,N,08122.75815,W,1,04,4.30,43.1,M,-29.2,M,,*5D
$GPRMC,170147.00,A,2824.65011,N,08122.75816,W,0.220,,231125,,,A*6B
$GPRMC,170147.12,A,2824.65012,N,08122.75816,W,0.303,,231125,,,A*6B
$GPRMC,170147.16,A,2824.65013,N,08122.75817,W,0.305,,231125,,,A*69
$GPRMC,170147.20,A,2824.65013,N,08122.75817,W,0.392,,231125,,,A*62
$GPRMC,170147.24,A,2824.65014,N,08122.75817,W,0.423,,231125,,,A*6C
$GPRMC,170147.28,A,2824.65014,N,08122.75817,W,0.494,31.66,231125,,,A*40
$GPRMC,170147.32,A,2824.65015,N,08122.75818,W,0.485,74.84,231125,,,A*48
$GPRMC,170147.36,A,2824.65016,N,08122.75821,W,0.360,,231125,,,A*68
$GPGGA,170147.36,2824.65016,N,08122.75821,W,1,04,4.30,42.7,M,-29.2,M,,*51
$GPRMC,170147.40,A,2824.65018,N,08122.75823,W,0.335,,231125,,,A*65
$GPRMC,170147.44,A,2824.65020,N,08122.75825,W,0.389,,231125,,,A*6B
$GPRMC,170147.48,A,2824.65023,N,08122.75828,W,0.331,,231125,,,A*6A
$GPRMC,170147.52,A,2824.65026,N,08122.75832,W,0.348,,231125,,,A*61
$GPRMC,170147.56,A,2824.65028,N,08122.75834,W,0.308,,231125,,,A*69
$GPRMC,170147.60,A,2824.65030,N,08122.75835,W,0.310,,231125,,,A*6D
$GPRMC,170147.64,A,2824.65032,N,08122.75836,W,0.336,,231125,,,A*6C
$GPRMC,170147.68,A,2824.65033,N,08122.75836,W,0.427,83.13,231125,,,A*41
$GPGGA,170147.76,2824.65036,N,08122.75837,W,1,04,4.30,41.8,M,-29.2,M,,*5C
$GPRMC,170147.80,A,2824.65037,N,08122.75836,W,0.404,,231125,,,A*65
$GPRMC,170147.84,A,2824.65037,N,08122.75837,W,0.321,,231125,,,A*60
$GPRMC,170147.88,A,2824.65037,N,08122.75837,W,0.414,,231125,,,A*6D
$GPRMC,170147.92,A,2824.65038,N,08122.75837,W,0.487,86.17,231125,,,A*45
$GPRMC,170147.96,A,2824.65038,N,08122.75835,W,0.570,88.71,231125,,,A*44
$GPRMC,170148.00,A,2824.65039,N,08122.75835,W,0.599,91.34,231125,,,A*4B
$GPRMC,170148.04,A,2824.65039,N,08122.75835,W,0.581,95.21,231125,,,A*46
$GPRMC,170148.08,A,2824.65043,N,08122.75846,W,0$GPRMC,170148.12,A,2824.65043,N,08122.75847,W,0.181,,231125,,,A*6C
$GPRMC,170148.16,A,2824.65046,N,08122.75854,W,0.295,176.00,231125,,,A*77
$GPGGA,170148.16,2824.65046,N,08122.75854,W,1,05,1.59,41.2,M,-29.2,M,,*56
$GPRMC,170148.20,A,2824.65052,N,08122.75868,W,0.154,,231125,,,A*68
$GPRMC,170148.24,A,2824.65056,N,08122.75879,W,0.431,144.08,231125,,,A*79
$GPRMC,170148.28,A,2824.65061,N,08122.75894,W,0.688,113.50,231125,,,A*7D
$GPRMC,170148.32,A,2824.65065,N,08122.75906,W,0.724,106.39,231125,,,A*74
$GPRMC,170148.36,A,2824.65067,N,08122.75910,W,0.170,,231125,,,A*61
$GPRMC,170148.52,A,2824.65076,N,08122.75929,W,0.337,88.36,231125,,,A*43
$GPRMC,170148.56,A,2824.65077,N,08122.75934,W,0.235,,231125,,,A*62
$GPGGA,170148.56,2824.65077,N,08122.75934,W,1,05,1.59,38.5,M,-29.2,M,,*5E
$GPRMC,170148.60,A,2824.65078,N,08122.75936,W,0.121,,231125,,,A*6C
$GPRMC,170148.64,A,2824.65080,N,08122.75940,W,0.180,,231125,,,A*65
$GPRMC,170148.68,A,2824.65081,N,08122.75943,W,0.275,92.26,231125,,,A*43
$GPRMC,170148.72,A,2824.65081,N,08122.75947,W,0.245,90.01,231125,,,A*48
$GPRMC,170148.76,A,2824.65083,N,08122.75950,W,0.218,71.11,231125,,,A*4E
$GPRMC,170148.88,A,2824.65084,N,08122.75962,W,0.187,,231125,,,A*64
$GPRMC,170148.92,A,2824.65084,N,08122.75966,W,0.135,,231125,,,A*62
$GPRMC,170148.96,A,2824.65084,N,08122.75969,W,0.184,,231125,,,A*63
$GPGGA,170148.96,2824.65084,N,08122.75969,W,1,05,1.59,37.1,M,-29.2,M,,*5D
$GPRMC,170149.00,A,2824.65085,N,08122.75971,W,0.219,66.30,231125,,,A*4F
$GPRMC,170149.04,A,2824.65085,N,08122.75973,W,0.119,,231125,,,A*67
$GPRMC,170149.08,A,2824.65086,N,08122.75976,W,0.227,49.18,231125,,,A*49
$GPRMC,170149.12,A,2824.65086,N,08122.75978,W,0.297,47.62,231125,,,A*44
$GPRMC,170149.16,A,2824.65086,N,08122.75980,W,0.177,,231125,,,A*63
$GPRMC,170149.20,A,2824.65085,N,08122.75982,W,0.314,314.02,231125,,,A*7A
$GPRMC,170149.24,A,2824.65086,N,08122.75984,W,0.200,287.77,231125,,,A*76
$GPRMC,170149.28,A,2824.65086,N,08122.75985,W,0.034,,231125,,,A*6D
$GPRMC,170149.32,A,2824.65086,N,08122.75987,W,0.188,,231125,,,A*62
$GPRMC,170149.36,A,2824.65087,N,08122.75988,W,0.098,,231125,,,A*68
$GPGGA,170149.36,2824.65087,N,08122.75988,W,1,05,1.59,36.2,M,-29.2,M,,*58
$GPRMC,170149.40,A,2824.65087,N,08122.75989,W,0.114,,231125,,,A*6D
$GPRMC,170149.44,A,2824.65087,N,08122.75991,W,0.179,,231125,,,A*6B
$GPRMC,170149.48,A,2824.65087,N,08122.75992,W,0.197,,231125,,,A*64
$GPRMC,170149.52,A,2824.65088,N,08122.75992,W,0.104,,231125,,,A*6A
$GPRMC,170149.56,A,2824.65088,N,08122.75993,W,0.076,,231125,,,A*6B
$GPRMC,170149.60,A,2824.65088,N,08122.75994,W,0.095,,231125,,,A*64
$GPRMC,170149.64,A,2824.65088,N,08122.75994,W,0.200,201.86,231125,,,A*7D
$GPRMC,170149.68,A,2824.65087,N,08122.75996,W,0.223,211.67,231125,,,A*73
$GPRMC,170149.72,A,2824.65087,N,08122.75997,W,0.153,,231125,,,A*60
$GPRMC,170149.76,A,2824.65087,N,08122.75998,W,0.059,,231125,,,A*60
$GPGGA,170149.76,2824.65087,N,08122.75998,W,1,05,1.59,35.7,M,-29.2,M,,*5B
$GPRMC,170149.88,A,2824.65088,N,08122.76000,W,0.162,,231125,,,A*6C
$GPRMC,170149.92,A,2824.65087,N,08122.76001,W,0.120,,231125,,,A*6F
$GPRMC,170149.96,A,2824.65087,N,08122.76001,W,0.025,,231125,,,A*6F
$GPRMC,170150.00,A,2824.65087,N,08122.76002,W,0.049,,231125,,,A*61
$GPRMC,170150.04,A,2824.65087,N,08122.76002,W,0.078,,231125,,,A*67
$GPRMC,170150.08,A,2824.65087,N,08122.76003,W,0.088,,231125,,,A*65
$GPRMC,170150.12,A,2824.65087,N,08122.76003,W,0.132,,231125,,,A*6E
$GPRMC,170150.16,A,2824.65087,N,08122.76003,W,0.065,,231125,,,A*69
$GPGGA,170150.16,2824.65087,N,08122.76003,W,1,05,1.59,35.3,M,-29.2,M,,*59
$GPRMC,170150.20,A,2824.65087,N,08122.76003,W,0.223,141.83,231125,,,A*7D
$GPRMC,170150.24,A,2824.65087,N,08122.76004,W,0.069,,231125,,,A*63
$GPRMC,170150.28,A,2824.65087,N,08122.76004,W,0.114,,231125,,,A*64
$GPRMC,170150.32,A,2824.65087,N,08122.76005,W,0.200,192.08,231125,,,A*74
$GPRMC,170150.36,A,2824.65086,N,08122.76006,W,0.237,237.58,231125,,,A*7F
$GPRMC,170150.40,A,2824.65086,N,08122.76007,W,0.146,,231125,,,A*6F
$GPRMC,170150.44,A,2824.65086,N,08122.76007,W,0.201,155.68,231125,,,A*7A
$GPRMC,170150.48,A,2824.65086,N,08122.76008,W,0.198,,231125,,,A*6B
$GPRMC,170150.52,A,2824.65085,N,08122.76009,W,0.283,146.37,231125,,,A*72
$GPRMC,170150.56,A,2824.65085,N,08122.76010,W,0.148,,231125,,,A*63
$GPGGA,170150.56,2824.65085,N,08122.76010,W,1,05,1.59,34.8,M,-29.2,M,,*57
$GPRMC,170150.60,A,2824.65085,N,08122.76011,W,0.356,241.50,231125,,,A*76
$GPRMC,170150.64,A,2824.65086,N,08122.76011,W,0.342,278.74,231125,,,A*78
$GPRMC,170150.68,A,2824.65086,N,08122.76011,W,0.353,343.35,231125,,,A*78
$GPRMC,170150.72,A,2824.65085,N,08122.76011,W,0.209,,231125,,,A*62
$GPRMC,170150.76,A,2824.65084,N,08122.76012,W,0.277,289.02,231125,,,A*72
$GPRMC,170150.88,A,2824.65084,N,08122.76012,W,0.151,,231125,,,A*6B
$GPRMC,170150.92,A,2824.65084,N,08122.76012,W,0.096,,231125,,,A*6A
$GPRMC,170150.96,A,2824.65084,N,08122.76013,W,0.121,,231125,,,A*62
$GPGGA,170150.96,2824.65084,N,08122.76013,W,1,05,1.59,34.4,M,-29.2,M,,*55
$GPRMC,170151.00,A,2824.65084,N,08122.76014,W,0.195,,231125,,,A*64
$GPRMC,170151.04,A,2824.65084,N,08122.76014,W,0.140,,231125,,,A*68
$GPRMC,170151.08,A,2824.65084,N,08122.76015,W,0.045,,231125,,,A*61
$GPRMC,170151.12,A,2824.65083,N,08122.76015,W,0.253,212.50,231125,,,A*72
$GPRMC,170151.16,A,2824.65083,N,08122.76015,W,0.113,,231125,,,A*6B
$GPRMC,170151.20,A,2824.65083,N,08122.76015,W,0.107,,231125,,,A*6B
$GPRMC,170151.24,A,2824.65082,N,08122.76016,W,0.100,,231125,,,A*6A
$GPRMC,170151.28,A,2824.65082,N,08122.76017,W,0.192,,231125,,,A*6C
$GPRMC,170151.32,A,2824.65082,N,08122.76017,W,0.136,,231125,,,A*69
$GPRMC,170151.36,A,2824.65082,N,08122.76018,W,0.098,,231125,,,A*67
$GPGGA,170151.36,2824.65082,N,08122.76018,W,1,05,1.59,34.0,M,-29.2,M,,*57
$GPRMC,170151.40,A,2824.65082,N,08122.76018,W,0.193,,231125,,,A*6C
$GPRMC,170151.44,A,2824.65081,N,08122.76018,W,0.114,,231125,,,A*64
$GPRMC,170151.56,A,2824.65080,N,08122.76020,W,0.279,194.45,231125,,,A*76
$GPRMC,170151.60,A,2824.65080,N,08122.76020,W,0.336,206.62,231125,,,A*74
$GPRMC,170151.64,A,2824.65080,N,08122.76020,W,0.062,,231125,,,A*6C
$GPRMC,170151.68,A,2824.65080,N,08122.76021,W,0.166,,231125,,,A*64
$GPRMC,170151.72,A,2824.65080,N,08122.76021,W,0.306,265.27,231125,,,A*71
$GPRMC,170151.76,A,2824.65080,N,08122.76022,W,0.082,,231125,,,A*63
$GPGGA,170151.76,2824.65080,N,08122.76022,W,1,05,1.59,33.6,M,-29.2,M,,*59
$GPRMC,170151.88,A,2824.65079,N,08122.76022,W,0.107,,231125,,,A*68
$GPRMC,170151.92,A,2824.65079,N,08122.76022,W,0.133,,231125,,,A*64
$GPRMC,170151.96,A,2824.65078,N,08122.76023,W,0.188,,231125,,,A*60
$GPRMC,170152.00,A,2824.65078,N,08122.76023,W,0.038,,231125,,,A*66
$GPRMC,170152.04,A,2824.65078,N,08122.76024,W,0.177,,231125,,,A*6F
$GPRMC,170152.08,A,2824.65078,N,08122.76024,W,0.094,,231125,,,A*6F
$GPRMC,170152.12,A,2824.65078,N,08122.76024,W,0.077,,231125,,,A*69
$GPRMC,170152.16,A,2824.65078,N,08122.76023,W,0.213,334.58,231125,,,A*7D
$GPGGA,170152.16,2824.65078,N,08122.76023,W,1,05,1.59,33.3,M,-29.2,M,,*5F
$GPRMC,170152.20,A,2824.65078,N,08122.76023,W,0.172,,231125,,,A*6B
$GPRMC,170152.24,A,2824.65077,N,08122.76024,W,0.162,,231125,,,A*66
$GPRMC,170152.28,A,2824.65077,N,08122.76024,W,0.160,,231125,,,A*68
$GPRMC,170152.32,A,2824.65077,N,08122.76024,W,0.178,,231125,,,A*6A
$GPRMC,170152.36,A,2824.65077,N,08122.76024,W,0.135,,231125,,,A*67
$GPRMC,170152.40,A,2824.65076,N,08122.76024,W,0.180,,231125,,,A*69
$GPRMC,170152.44,A,2824.65076,N,08122.76023,W,0.054,,231125,,,A*62
$GPRMC,170152.56,A,2824.65076,N,08122.76022,W,0.137,,231125,,,A*64
$GPGGA,170152.56,2824.65076,N,08122.76022,W,1,05,1.59,33.1,M,-29.2,M,,*56
$GPRMC,170152.60,A,2824.65076,N,08122.76023,W,0.215,29.67,231125,,,A*47
$GPRMC,170152.64,A,2824.65076,N,08122.76022,W,0.060,,231125,,,A*66
$GPRMC,170152.68,A,2824.65076,N,08122.76022,W,0.019,,231125,,,A*64
$GPRMC,170152.72,A,2824.65075,N,08122.76021,W,0.162,,231125,,,A*62
$GPRMC,170152.76,A,2824.65075,N,08122.76021,W,0.079,,231125,,,A*6D
$GPRMC,170152.88,A,2824.65075,N,08122.76020,W,0.063,,231125,,,A*66
$GPRMC,170152.92,A,2824.65075,N,08122.76020,W,0.171,,231125,,,A*6F
$GPRMC,170152.96,A,2824.65074,N,08122.76020,W,0.189,,231125,,,A*6D
$GPGGA,170152.96,2824.65074,N,08122.76020,W,1,05,1.59,33.0,M,-29.2,M,,*5B
$GPRMC,170153.00,A,2824.65074,N,08122.76019,W,0.147,,231125,,,A*6B
$GPRMC,170153.04,A,2824.65074,N,08122.76019,W,0.141,,231125,,,A*69
$GPRMC,170153.08,A,2824.65074,N,08122.76019,W,0.192,,231125,,,A*6B
$GPRMC,170153.12,A,2824.65074,N,08122.76019,W,0.098,,231125,,,A*6B
$GPRMC,170153.16,A,2824.65074,N,08122.76018,W,0.149,,231125,,,A*63
$GPRMC,170153.20,A,2824.65074,N,08122.76018,W,0.072,,231125,,,A*6F
$GPRMC,170153.24,A,2824.65073,N,08122.76018,W,0.150,,231125,,,A*6D
$GPRMC,170153.28,A,2824.65073,N,08122.76017,W,0.093,,231125,,,A*60
$GPRMC,170153.32,A,2824.65073,N,08122.76017,W,0.106,,231125,,,A*66
$GPRMC,170153.36,A,2824.65073,N,08122.76017,W,0.156,,231125,,,A*67
$GPGGA,170153.36,2824.65073,N,08122.76017,W,1,05,1.59,32.9,M,-29.2,M,,*5B
$GPRMC,170153.40,A,2824.65073,N,08122.76016,W,0.110,,231125,,,A*65
$GPRMC,170153.44,A,2824.65073,N,08122.76015,W,0.028,,231125,,,A*68
$GPRMC,170153.56,A,2824.65072,N,08122.76014,W,0.074,,231125,,,A*62
$GPRMC,170153.60,A,2824.65072,N,08122.76014,W,0.043,,231125,,,A*63
$GPRMC,170153.64,A,2824.65072,N,08122.76014,W,0.117,,231125,,,A*67
$GPRMC,170153.68,A,2824.65072,N,08122.76013,W,0.138,,231125,,,A*61
$GPRMC,170153.72,A,2824.65072,N,08122.76013,W,0.119,,231125,,,A*69
$GPRMC,170153.76,A,2824.65072,N,08122.76012,W,0.171,,231125,,,A*62
$GPGGA,170153.76,2824.65072,N,08122.76012,W,1,05,1.59,32.8,M,-29.2,M,,*5A
$GPRMC,170153.88,A,2824.65071,N,08122.76011,W,0.175,,231125,,,A*67
$GPRMC,170153.92,A,2824.65071,N,08122.76011,W,0.175,,231125,,,A*6C
$GPRMC,170153.96,A,2824.65071,N,08122.76010,W,0.091,,231125,,,A*62
$GPRMC,170154.00,A,2824.65071,N,08122.76010,W,0.178,,231125,,,A*6C
$GPRMC,170154.04,A,2824.65070,N,08122.76009,W,0.216,,231125,,,A*6A
$GPRMC,170154.08,A,2824.65070,N,08122.76009,W,0.072,,231125,,,A*66
$GPRMC,170154.12,A,2824.65071,N,08122.76009,W,0.317,33.68,231125,,,A*4C
$GPRMC,170154.16,A,2824.65071,N,08122.76008,W,0.218,27.21,231125,,,A*4F
$GPGGA,170154.16,2824.65071,N,08122.76008,W,1,05,1.59,32.7,M,-29.2,M,,*5C
$GPRMC,170154.20,A,2824.65071,N,08122.76008,W,0.155,,231125,,,A*68
$GPRMC,170154.24,A,2824.65070,N,08122.76007,W,0.179,,231125,,,A*6C
$GPRMC,170154.28,A,2824.65070,N,08122.76007,W,0.164,,231125,,,A*6C
$GPRMC,170154.32,A,2824.65070,N,08122.76007,W,0.036,,231125,,,A*61
$GPRMC,170154.36,A,2824.65070,N,08122.76006,W,0.366,25.88,231125,,,A*4B
$GPRMC,170154.40,A,2824.65070,N,08122.76006,W,0.200,,231125,,,A*62
$GPRMC,170154.44,A,2824.65070,N,08122.76005,W,0.073,,231125,,,A*63
$GPRMC,170154.56,A,2824.65069,N,08122.76004,W,0.213,,231125,,,A*6D
$GPGGA,170154.56,2824.65069,N,08122.76004,W,1,05,1.59,32.7,M,-29.2,M,,*5D
$GPRMC,170154.60,A,2824.65069,N,08122.76003,W,0.136,,231125,,,A*6B
$GPRMC,170154.64,A,2824.65069,N,08122.76003,W,0.099,,231125,,,A*6B
$GPRMC,170154.68,A,2824.65069,N,08122.76002,W,0.210,,231125,,,A*65
$GPRMC,170154.72,A,2824.65069,N,08122.76002,W,0.186,,231125,,,A*62
$GPRMC,170154.76,A,2824.65069,N,08122.76002,W,0.150,,231125,,,A*6D
$GPRMC,170154.80,A,2824.65069,N,08122.76002,W,0.177,,231125,,,A*61
$GPRMC,170154.84,A,2824.65068,N,08122.76001,W,0.207,$GPRMC,170154.88,A,2824.65068,N,08122.76000,W,0.259,,231125,,,A*65
$GPRMC,170154.92,A,2824.65068,N,08122.75999,W,0.248,43.29,231125,,,A*46
$GPRMC,170154.96,A,2824.65068,N,08122.75999,W,0.167,,231125,,,A*6E
$GPGGA,170154.96,2824.65068,N,08122.75999,W,1,05,1.59,32.6,M,-29.2,M,,*5F
$GPRMC,170155.00,A,2824.65069,N,08122.75999,W,0.238,,231125,,,A*68
$GPRMC,170155.04,A,2824.65069,N,08122.75999,W,0.121,,231125,,,A*67
$GPRMC,170155.08,A,2824.65068,N,08122.75998,W,0.112,,231125,,,A*6B
$GPRMC,170155.12,A,2824.65068,N,08122.75998,W,0.186,,231125,,,A*6D
$GPRMC,170155.16,A,2824.65068,N,08122.75997,W,0.110,,231125,,,A*69
$GPRMC,170155.20,A,2824.65068,N,08122.75997,W,0.283,14.76,231125,,,A*4F
$GPRMC,170155.24,A,2824.65069,N,08122.75997,W,0.320,356.05,231125,,,A*73
$GPRMC,170155.28,A,2824.65068,N,08122.75996,W,0.187,,231125,,,A*6B
$GPRMC,170155.32,A,2824.65068,N,08122.75995,W,0.074,,231125,,,A*6E
$GPRMC,170155.36,A,2824.65068,N,08122.75996,W,0.291,295.01,231125,,,A*71
$GPGGA,170155.36,2824.65068,N,08122.75996,W,1,05,1.59,32.5,M,-29.2,M,,*58
$GPRMC,170155.40,A,2824.65067,N,08122.75996,W,0.419,265.46,231125,,,A*75
$GPRMC,170155.44,A,2824.65068,N,08122.75995,W,0.245,263.87,231125,,,A*79
$GPRMC,170155.56,A,2824.65067,N,08122.75993,W,0.263,125.59,231125,,,A*75
$GPRMC,170155.60,A,2824.65067,N,08122.75993,W,0.169,,231125,,,A*6D
$GPRMC,170155.64,A,2824.65068,N,08122.75993,W,0.101,,231125,,,A*68
$GPRMC,170155.68,A,2824.65067,N,08122.75992,W,0.045,,231125,,,A*6B
$GPRMC,170155.72,A,2824.65066,N,08122.75991,W,0.578,127.55,231125,,,A*73
$GPRMC,170155.76,A,2824.65066,N,08122.75990,W,0.316,128.56,231125,,,A*74
$GPGGA,170155.76,2824.65066,N,08122.75990,W,1,05,1.59,32.5,M,-29.2,M,,*54
$GPRMC,170155.80,A,2824.65066,N,08122.75990,W,0.232,,231125,,,A*6C
$GPRMC,170155.84,A,2824.65067,N,08122.75990,W,0.386,39.31,231125,,,A*41
$GPRMC,170155.88,A,2824.65067,N,08122.75989,W,0.318,8.89,231125,,,A*73
$GPRMC,170155.92,A,2824.65066,N,08122.75989,W,0.127,,231125,,,A*60
$GPRMC,170155.96,A,2824.65066,N,08122.75988,W,0.180,,231125,,,A*68
$GPRMC,170156.00,A,2824.65065,N,08122.75987,W,0.333,70.27,231125,,,A*4E
$GPRMC,170156.04,A,2824.65065,N,08122.75986,W,0.156,,231125,,,A*66
$GPRMC,170156.08,A,2824.65065,N,08122.75986,W,0.077,,231125,,,A*68
$GPRMC,170156.12,A,2824.65065,N,08122.75986,W,0.206,,231125,,,A*67
$GPRMC,170156.16,A,2824.65065,N,08122.75986,W,0.401,313.17,231125,,,A*7B
$GPGGA,170156.16,2824.65065,N,08122.75986,W,1,05,1.59,32.4,M,-29.2,M,,*54
$GPRMC,170156.20,A,2824.65064,N,08122.75986,W,0.315,276.22,231125,,,A*79
$GPRMC,170156.24,A,2824.65064,N,08122.75985,W,0.088,,231125,,,A*64
$GPRMC,170156.28,A,2824.65064,N,08122.75984,W,0.276,344.92,231125,,,A*7C
$GPRMC,170156.32,A,2824.65064,N,08122.75984,W,0.226,7.71,231125,,,A*7B
$GPRMC,170156.36,A,2824.65064,N,08122.75983,W,0.196,,231125,,,A*6F
$GPRMC,170156.40,A,2824.65064,N,08122.75983,W,0.121,,231125,,,A*62
$GPRMC,170156.44,A,2824.65063,N,08122.75983,W,0.325,111.08,231125,,,A*70
$GPRMC,170156.56,A,2824.65063,N,08122.75980,W,0.447,77.91,231125,,,A*42
$GPGGA,170156.56,2824.65063,N,08122.75980,W,1,05,1.59,32.3,M,-29.2,M,,*57
$GPRMC,170156.60,A,2824.65063,N,08122.75980,W,0.422,55.57,231125,,,A*4E
$GPRMC,170156.64,A,2824.65063,N,08122.75979,W,0.257,49.37,231125,,,A*43
$GPRMC,170156.68,A,2824.65062,N,08122.75980,W,0.195,,231125,,,A*62
$GPRMC,170156.72,A,2824.65061,N,08122.75979,W,0.530,144.41,231125,,,A*7D
$GPRMC,170156.76,A,2824.65061,N,08122.75979,W,0.227,,231125,,,A*62
$GPRMC,170156.80,A,2824.65062,N,08122.75979,W,0.347,195.74,231125,,,A*7F
$GPRMC,170156.84,A,2824.65062,N,08122.75978,W,0.485,275.19,231125,,,A*75
$GPRMC,170156.88,A,2824.65062,N,08122.75978,W,0.253,,231125,,,A*62
$GPRMC,170156.92,A,2824.65062,N,08122.75978,W,0.353,276.65,231125,,,A*76
$GPRMC,170156.96,A,2824.65061,N,08122.75977,W,0.077,,231125,,,A*65
$GPGGA,170156.96,2824.65061,N,08122.75977,W,1,05,1.59,32.2,M,-29.2,M,,*50
$GPRMC,170157.00,A,2824.65060,N,08122.75975,W,0.416,195.71,231125,,,A*7E
$GPRMC,170157.04,A,2824.65059,N,08122.75975,W,0.410,163.62,231125,,,A*7D
$GPRMC,170157.08,A,2824.65059,N,08122.75974,W,0.192,,231125,,,A*61
$GPRMC,170157.12,A,2824.65059,N,08122.75973,W,0.086,,231125,,,A*69
$GPRMC,170157.24,A,2824.65058,N,08122.75970,W,0.252,96.15,231125,,,A*40
$GPRMC,170157.28,A,2824.65057,N,08122.75970,W,0.235,,231125,,,A*67
$GPRMC,170157.32,A,2824.65057,N,08122.75970,W,0.253,166.41,231125,,,A*76
$GPRMC,170157.36,A,2824.65056,N,08122.75969,W,0.265,197.88,231125,,,A*75
$GPGGA,170157.36,2824.65056,N,08122.75969,W,1,05,1.59,32.0,M,-29.2,M,,*52
$GPRMC,170157.40,A,2824.65057,N,08122.75968,W,0.146,,231125,,,A*67
$GPRMC,170157.44,A,2824.65057,N,08122.75967,W,0.371,92.28,231125,,,A*45
$GPRMC,170157.56,A,2824.65055,N,08122.75965,W,0.226,,231125,,,A*6A
$GPRMC,170157.60,A,2824.65055,N,08122.75965,W,0.148,,231125,,,A*64
$GPRMC,170157.64,A,2824.65055,N,08122.75965,W,0.286,185.97,231125,,,A*7D
$GPRMC,170157.68,A,2824.65055,N,08122.75964,W,0.118,,231125,,,A*68
$GPRMC,170157.72,A,2824.65055,N,08122.75963,W,0.200,,231125,,,A*6E
$GPRMC,170157.76,A,2824.65055,N,08122.75963,W,0.046,,231125,,,A*6A
$GPGGA,170157.76,2824.65055,N,08122.75963,W,1,05,1.59,31.9,M,-29.2,M,,*55
$GPRMC,170157.80,A,2824.65055,N,08122.75963,W,0.044,,231125,,,A*61
$GPRMC,170157.84,A,2824.65054,N,08122.75962,W,0.110,,231125,,,A*65
$GPRMC,170157.88,A,2824.65054,N,08122.75961,W,0.024,,231125,,,A*6C
$GPRMC,170157.92,A,2824.65054,N,08122.75962,W,0.245,221.65,231125,,,A*7D
$GPRMC,170157.96,A,2824.65054,N,08122.75961,W,0.318,274.94,231125,,,A*7D
$GPRMC,170158.00,A,2824.65054,N,08122.75961,W,0.111,,231125,,,A*64
$GPRMC,170158.04,A,2824.65053,N,08122.75960,W,0.247,228.21,231125,,,A*73
$GPRMC,170158.08,A,2824.65053,N,08122.75960,W,0.180,,231125,,,A*62
$GPRMC,170158.12,A,2824.65053,N,08122.75959,W,0.180,,231125,,,A*63
$GPRMC,170158.20,A,2824.65053,N,08122.75959,W,0.149,,231125,,,A*67
$GPRMC,170158.24,A,2824.65053,N,08122.75959,W,0.243,252.92,231125,,,A*7A
$GPRMC,170158.28,A,2824.65053,N,08122.75958,W,0.182,,231125,,,A*69
$GPRMC,170158.32,A,2824.65053,N,08122.75957,W,0.187,,231125,,,A*68
$GPRMC,170158.36,A,2824.65052,N,08122.75957,W,0.091,,231125,,,A*6B
$GPRMC,170158.40,A,2824.65052,N,08122.75957,W,0.076,,231125,,,A*63
$GPRMC,170158.44,A,2824.65052,N,08122.75956,W,0.319,307.48,231125,,,A*7A
$GPRMC,170158.56,A,2824.65051,N,08122.75955,W,0.339,99.75,231125,,,A*41
$GPGGA,170158.56,2824.65051,N,08122.75955,W,1,05,1.59,31.8,M,-29.2,M,,*58
$GPRMC,170158.60,A,2824.65051,N,08122.75954,W,0.111,,231125,,,A*61
$GPRMC,170158.64,A,2824.65051,N,08122.75954,W,0.248,61.64,231125,,,A*41
$GPRMC,170158.68,A,2824.65051,N,08122.75954,W,0.181,,231125,,,A*60
$GPRMC,170158.72,A,2824.65051,N,08122.75954,W,0.273,345.26,231125,,,A*7D
$GPRMC,170158.76,A,2824.65050,N,08122.75953,W,0.268,265.03,231125,,,A*71
$GPRMC,170158.80,A,2824.65049,N,08122.75953,W,0.377,207.23,231125,,,A*79
$GPRMC,170158.84,A,2824.65049,N,08122.75953,W,0.308,218.07,231125,,,A*7D
$GPRMC,170158.88,A,2824.65049,N,08122.75954,W,0.430,241.46,231125,,,A*73
$GPRMC,170158.92,A,2824.65049,N,08122.75954,W,0.281,253.08,231125,,,A*7D
$GPRMC,170158.96,A,2824.65049,N,08122.75953,W,0.247,355.79,231125,,,A*75
$GPGGA,170158.96,2824.65049,N,08122.75953,W,1,05,1.59,31.7,M,-29.2,M,,*54
$GPRMC,170159.00,A,2824.65049,N,08122.75952,W,0.206,17.06,231125,,,A*42
$GPRMC,170159.04,A,2824.65049,N,08122.75952,W,0.190,,231125,,,A*64
$GPRMC,170159.08,A,2824.65048,N,08122.75951,W,0.182,,231125,,,A*69
$GPRMC,170159.12,A,2824.65047,N,08122.75952,W,0.233,317.99,231125,,,A*7C
$GPRMC,170159.24,A,2824.65045,N,08122.75950,W,0.488,192.99,231125,,,A*70
$GPRMC,170159.28,A,2824.65045,N,08122.75950,W,0.227,,231125,,,A*6B
$GPRMC,170159.32,A,2824.65045,N,08122.75949,W,0.276,,231125,,,A*6C
$GPRMC,170159.36,A,2824.65045,N,08122.75949,W,0.130,,231125,,,A*69
$GPGGA,170159.36,2824.65045,N,08122.75949,W,1,05,1.59,31.7,M,-29.2,M,,*58
$GPRMC,170159.40,A,2824.65045,N,08122.75949,W,0.306,221.07,231125,,,A*77
$GPRMC,170159.44,A,2824.65045,N,08122.75948,W,0.082,,231125,,,A*65
$GPRMC,170159.56,A,2824.65044,N,08122.75946,W,0.097,,231125,,,A*6D
$GPRMC,170159.60,A,2824.65043,N,08122.75946,W,0.218,,231125,,,A*6A
$GPRMC,170159.64,A,2824.65043,N,08122.75946,W,0.243,236.53,231125,,,A*7F
$GPRMC,170159.68,A,2824.65042,N,08122.75946,W,0.177,,231125,,,A*69
$GPRMC,170159.72,A,2824.65042,N,08122.75946,W,0.109,,231125,,,A*6B
$GPRMC,170159.76,A,2824.65042,N,08122.75945,W,0.165,,231125,,,A*66
$GPGGA,170159.76,2824.65042,N,08122.75945,W,1,05,1.59,31.6,M,-29.2,M,,*56
$GPRMC,170159.80,A,2824.65042,N,08122.75944,W,0.152,,231125,,,A*6A
$GPRMC,170159.84,A,2824.65041,N,08122.75944,W,0.115,,231125,,,A*6E
$GPRMC,170159.88,A,2824.65041,N,08122.75944,W,0.146,,231125,,,A*64
$GPRMC,170159.92,A,2824.65041,N,08122.75944,W,0.176,,231125,,,A*6C
$GPRMC,170159.96,A,2824.65041,N,08122.75943,W,0.210,,231125,,,A*6C
$GPRMC,170200.00,A,2824.65040,N,08122.75943,W,0.097,,231125,,,A*60
$GPRMC,170200.04,A,2824.65040,N,08122.75943,W,0.145,,231125,,,A*6A
$GPRMC,170200.08,A,2824.65040,N,08122.75942,W,0.287,150.06,231125,,,A*76
$GPRMC,170200.12,A,2824.65040,N,08122.75942,W,0.386,97.06,231125,,,A*47
$GPRMC,170200.20,A,2824.65041,N,08122.75942,W,0.413,41.99,231125,,,A*41
$GPRMC,170200.24,A,2824.65041,N,08122.75942,W,0.252,35.67,231125,,,A*44
$GPRMC,170200.28,A,2824.65040,N,08122.75943,W,0.192,,231125,,,A*6E
$GPRMC,170200.32,A,2824.65039,N,08122.75944,W,0.209,95.01,231125,,,A*4E
$GPRMC,170200.36,A,2824.65039,N,08122.75945,W,0.246,150.14,231125,,,A*7C
$GPRMC,170200.40,A,2824.65038,N,08122.75945,W,0.255,159.00,231125,,,A*72
$GPRMC,170200.44,A,2824.65038,N,08122.75945,W,0.107,,231125,,,A*61
$GPRMC,170200.56,A,2824.65038,N,08122.75944,W,0.188,,231125,,,A*64
$GPGGA,170200.56,2824.65038,N,08122.75944,W,1,07,1.18,31.5,M,-29.2,M,,*53
$GPRMC,170200.60,A,2824.65038,N,08122.75944,W,0.224,,231125,,,A*64
$GPRMC,170200.64,A,2824.65038,N,08122.75944,W,0.225,,231125,,,A*61
$GPRMC,170200.68,A,2824.65037,N,08122.75945,W,0.161,,231125,,,A*60
$GPRMC,170200.72,A,2824.65037,N,08122.75945,W,0.174,,231125,,,A*6F
$GPRMC,170200.76,A,2824.65036,N,08122.75946,W,0.230,130.91,231125,,,A*7E
$GPRMC,170200.80,A,2824.65036,N,08122.75945,W,0.244,,231125,,,A*63
$GPRMC,170200.84,A,2824.65036,N,08122.75945,W,0.270,113.17,231125,,,A*7B
$GPRMC,170200.88,A,2824.65036,N,08122.75945,W,0.203,72.57,231125,,,A*41
$GPRMC,170200.92,A,2824.65035,N,08122.75947,W,0.349,336.66,231125,,,A*75
$GPRMC,170200.96,A,2824.65035,N,08122.75948,W,0.306,307.92,231125,,,A*7C
$GPGGA,170200.96,2824.65035,N,08122.75948,W,1,07,1.18,31.4,M,-29.2,M,,*5F
$GPRMC,170201.00,A,2824.65034,N,08122.75948,W,0.148,,231125,,,A*6A
$GPRMC,170201.04,A,2824.65034,N,08122.75949,W,0.075,,231125,,,A*60
$GPRMC,170201.08,A,2824.65033,N,08122.75949,W,0.214,255.95,231125,,,A*7E
$GPRMC,170201.12,A,2824.65033,N,08122.75949,W,0.250,161.43,231125,,,A*7A
$GPRMC,170201.24,A,2824.65032,N,08122.75950,W,0.038,,231125,,,A*65
$GPRMC,170201.28,A,2824.65032,N,08122.75950,W,0.150,,231125,,,A*66
$GPRMC,170201.32,A,2824.65031,N,08122.75950,W,0.281,153.94,231125,,,A*75
$GPRMC,170201.36,A,2824.65031,N,08122.75949,W,0.504,94.03,231125,,,A*47
$GPGGA,170201.36,2824.65031,N,08122.75949,W,1,07,1.18,31.4,M,-29.2,M,,*51
$GPRMC,170201.40,A,2824.65031,N,08122.75948,W,0.590,80.16,231125,,,A*4B
$GPRMC,170201.44,A,2824.65031,N,08122.75948,W,0.118,,231125,,,A*6A
$GPRMC,170201.56,A,2824.65030,N,08122.75947,W,0.261,96.44,231125,,,A*4B
$GPRMC,170201.60,A,2824.65030,N,08122.75947,W,0.230,,231125,,,A*6B
$GPRMC,170201.64,A,2824.65030,N,08122.75947,W,0.307,15.08,231125,,,A*48
$GPRMC,170201.68,A,2824.65029,N,08122.75947,W,0.431,310.03,231125,,,A*73
$GPRMC,170201.72,A,2824.65029,N,08122.75947,W,0.250,305.29,231125,,,A*75
$GPRMC,170201.76,A,2824.65029,N,08122.75946,W,0.289,303.54,231125,,,A*78
$GPGGA,170201.76,2824.65029,N,08122.75946,W,1,07,1.18,31.4,M,-29.2,M,,*53
$GPRMC,170201.80,A,2824.65029,N,08122.75947,W,0.166,,231125,,,A*6D
$GPRMC,170201.84,A,2824.65029,N,08122.75947,W,0.235,295.62,231125,,,A*78
$GPRMC,170201.88,A,2824.65028,N,08122.75947,W,0.243,263.47,231125,,,A*7A
$GPRMC,170201.92,A,2824.65028,N,08122.75947,W,0.265,294.97,231125,,,A*70
$GPRMC,170201.96,A,2824.65029,N,08122.75947,W,0.344,320.11,231125,,,A*77
$GPRMC,170202.00,A,2824.65029,N,08122.75947,W,0.095,,231125,,,A*6B
$GPRMC,170202.04,A,2824.65028,N,08122.75946,W,0.123,,231125,,,A*63
$GPRMC,170202.08,A,2824.65028,N,08122.75946,W,0.086,,231125,,,A*61
$GPRMC,170202.12,A,2824.65028,N,08122.75946,W,0.148,,231125,,,A*69
$GPRMC,170202.24,A,2824.65028,N,08122.75946,W,0.167,,231125,,,A*61
$GPRMC,170202.28,A,2824.65027,N,08122.75946,W,0.152,,231125,,,A*64
$GPRMC,170202.32,A,2824.65027,N,08122.75947,W,0.274,326.04,231125,,,A*74
$GPRMC,170202.36,A,2824.65027,N,08122.75947,W,0.299,305.46,231125,,,A*74
$GPRMC,170202.40,A,2824.65027,N,08122.75948,W,0.289,302.02,231125,,,A*7C
$GPRMC,170202.44,A,2824.65027,N,08122.75948,W,0.284,326.17,231125,,,A*77
$GPRMC,170202.56,A,2824.65027,N,08122.75949,W,0.105,,231125,,,A*60
$GPGGA,170202.56,2824.65027,N,08122.75949,W,1,07,1.18,31.3,M,-29.2,M,,*54
$GPRMC,170202.60,A,2824.65026,N,08122.75950,W,0.589,272.35,231125,,,A*73
$GPRMC,170202.64,A,2824.65026,N,08122.75950,W,0.110,,231125,,,A*6C
$GPRMC,170202.68,A,2824.65028,N,08122.75949,W,1.003,319.21,231125,,,A*72
$GPRMC,170202.72,A,2824.65029,N,08122.75949,W,0.980,351.36,231125,,,A*71
$GPRMC,170202.76,A,2824.65029,N,08122.75949,W,0.686,358.07,231125,,,A*77
$GPRMC,170202.80,A,2824.65029,N,08122.75948,W,0.381,,231125,,,A*6A
$GPRMC,170202.84,A,2824.65029,N,08122.75948,W,0.183,,231125,,,A*6E
$GPRMC,170202.88,A,2824.65028,N,08122.75948,W,0.107,,231125,,,A*6F
$GPRMC,170202.92,A,2824.65028,N,08122.75947,W,0.101,,231125,,,A*6D
$GPRMC,170202.96,A,2824.65028,N,08122.75947,W,0.174,,231125,,,A*6B
$GPGGA,170202.96,2824.65028,N,08122.75947,W,1,07,1.18,31.3,M,-29.2,M,,*59
$GPRMC,170203.00,A,2824.65027,N,08122.75947,W,0.174,,231125,,,A*6A
$GPRMC,170203.04,A,2824.65028,N,08122.75948,W,0.460,342.53,231125,,,A*73
$GPRMC,170203.08,A,2824.65028,N,08122.75948,W,0.383,,231125,,,A*68
$GPRMC,170203.12,A,2824.65028,N,08122.75948,W,0.330,,231125,,,A*6B
$GPRMC,170203.24,A,2824.65028,N,08122.75947,W,0.339,6.52,231125,,,A*77
$GPRMC,170203.28,A,2824.65028,N,08122.75947,W,0.366,353.32,231125,,,A*74
$GPRMC,170203.32,A,2824.65028,N,08122.75948,W,0.405,315.25,231125,,,A*76
$GPRMC,170203.36,A,2824.65028,N,08122.75949,W,0.287,,231125,,,A*61
$GPGGA,170203.36,2824.65028,N,08122.75949,W,1,07,1.18,31.3,M,-29.2,M,,*5C
$GPRMC,170203.40,A,2824.65028,N,08122.75949,W,0.242,,231125,,,A*69
$GPRMC,170203.44,A,2824.65028,N,08122.75950,W,0.309,323.93,231125,,,A*7D
$GPRMC,170203.48,A,2824.65028,N,08122.75950,W,0.169,,231125,,,A*63
$GPRMC,170203.52,A,2824.65028,N,08122.75950,W,0.138,,231125,,,A*6C
$GPRMC,170203.56,A,2824.65027,N,08122.75951,W,0.229,,231125,,,A*65
$GPRMC,170203.60,A,2824.65027,N,08122.75952,W,0.383,278.82,231125,,,A*7B
$GPRMC,170203.64,A,2824.65027,N,08122.75952,W,0.282,,231125,,,A*66
$GPRMC,170203.68,A,2824.65028,N,08122.75952,W,0.277,,231125,,,A*6F
$GPRMC,170203.72,A,2824.65028,N,08122.75952,W,0.199,,231125,,,A*67
$GPRMC,170203.76,A,2824.65028,N,08122.75952,W,0.237,,231125,,,A*64
$GPGGA,170203.76,2824.65028,N,08122.75952,W,1,07,1.18,31.2,M,-29.2,M,,*53
$GPRMC,170203.80,A,2824.65027,N,08122.75953,W,0.100,,231125,,,A*64
$GPRMC,170203.84,A,2824.65027,N,08122.75953,W,0.308,,231125,,,A*6A
$GPRMC,170203.88,A,2824.65029,N,08122.75953,W,0.408,333.20,231125,,,A*70
$GPRMC,170203.92,A,2824.65029,N,08122.75952,W,0.319,352.85,231125,,,A*75
$GPRMC,170203.96,A,2824.65028,N,08122.75952,W,0.358,26.36,231125,,,A*4D
$GPRMC,170204.00,A,2824.65028,N,08122.75952,W,0.242,,231125,,,A*60
$GPRMC,170204.04,A,2824.65028,N,08122.75952,W,0.019,,231125,,,A*68
$GPRMC,170204.08,A,2824.65027,N,08122.75953,W,0.292,306.41,231125,,,A*75
$GPRMC,170204.12,A,2824.65027,N,08122.75953,W,0.240,264.86,231125,,,A*7F
$GPRMC,170204.24,A,2824.65026,N,08122.75953,W,0.174,,231125,,,A*6F
$GPRMC,170204.28,A,2824.65026,N,08122.75953,W,0.094,,231125,,,A*6C
$GPRMC,170204.32,A,2824.65027,N,08122.75953,W,0.129,,231125,,,A*61
$GPRMC,170204.36,A,2824.65027,N,08122.75953,W,0.266,,231125,,,A*6D
$GPRMC,170204.40,A,2824.65027,N,08122.75953,W,0.256,325.71,231125,,,A*73
$GPRMC,170204.44,A,2824.65027,N,08122.75953,W,0.168,,231125,,,A*65
$GPRMC,170204.48,A,2824.65026,N,08122.75953,W,0.160,,231125,,,A*60
$GPRMC,170204.52,A,2824.65027,N,08122.75953,W,0.077,,231125,,,A*6D
$GPRMC,170204.56,A,2824.65027,N,08122.75953,W,0.137,,231125,,,A*6C
$GPGGA,170204.56,2824.65027,N,08122.75953,W,1,07,1.18,31.2,M,-29.2,M,,*58
$GPRMC,170204.60,A,2824.65026,N,08122.75953,W,0.113,,231125,,,A*6E
$GPRMC,170204.64,A,2824.65026,N,08122.75953,W,0.167,,231125,,,A*69
$GPRMC,170204.68,A,2824.65026,N,08122.75953,W,0.098,,231125,,,A*64
$GPRMC,170204.72,A,2824.65026,N,08122.75954,W,0.146,,231125,,,A*6A
$GPRMC,170204.76,A,2824.65026,N,08122.75954,W,0.189,,231125,,,A*6D
$GPRMC,170204.80,A,2824.65026,N,08122.75954,W,0.135,,231125,,,A*63
$GPRMC,170204.92,A,2824.65025,N,08122.75954,W,0.140,,231125,,,A*61
$GPRMC,170204.96,A,2824.65025,N,08122.75954,W,0.065,,231125,,,A*63
$GPGGA,170204.96,2824.65025,N,08122.75954,W,1,07,1.18,31.1,M,-29.2,M,,*52
$GPRMC,170205.00,A,2824.65025,N,08122.75954,W,0.084,,231125,,,A*62
$GPRMC,170205.04,A,2824.65025,N,08122.75954,W,0.118,,231125,,,A*62
$GPRMC,170205.08,A,2824.65025,N,08122.75953,W,0.216,,231125,,,A*64
$GPRMC,170205.12,A,2824.65025,N,08122.75953,W,0.078,,231125,,,A*65
$GPRMC,170205.24,A,2824.65024,N,08122.75954,W,0.233,,231125,,,A*6B
$GPRMC,170205.28,A,2824.65025,N,08122.75954,W,0.169,,231125,,,A*6A
$GPRMC,170205.32,A,2824.65025,N,08122.75954,W,0.172,,231125,,,A*6B
$GPRMC,170205.36,A,2824.65025,N,08122.75954,W,0.218,,231125,,,A*60
$GPGGA,170205.36,2824.65025,N,08122.75954,W,1,07,1.18,31.0,M,-29.2,M,,*58
$GPRMC,170205.40,A,2824.65025,N,08122.75955,W,0.162,,231125,,,A*6E
$GPRMC,170205.44,A,2824.65024,N,08122.75955,W,0.283,298.15,231125,,,A*7E
$GPRMC,170205.48,A,2824.65024,N,08122.75956,W,0.303,277.16,231125,,,A*7A
$GPRMC,170205.52,A,2824.65023,N,08122.75955,W,0.418,223.44,231125,,,A*7E
$GPRMC,170205.56,A,2824.65024,N,08122.75955,W,0.094,,231125,,,A*60
$GPRMC,170205.60,A,2824.65023,N,08122.75956,W,0.281,230.42,231125,,,A*7E
$GPRMC,170205.64,A,2824.65023,N,08122.75958,W,0.594,267.76,231125,,,A*72
$GPRMC,170205.68,A,2824.65023,N,08122.75959,W,0.725,275.22,231125,,,A*75
$GPRMC,170205.72,A,2824.65023,N,08122.75959,W,0.760,275.57,231125,,,A*7D
$GPRMC,170205.76,A,2824.65024,N,08122.75959,W,0.297,276.72,231125,,,A*77
$GPGGA,170205.76,2824.65024,N,08122.75959,W,1,07,1.18,31.1,M,-29.2,M,,*51
$GPRMC,170205.80,A,2824.65024,N,08122.75960,W,0.491,306.65,231125,,,A*74
$GPRMC,170205.92,A,2824.65025,N,08122.75965,W,0.763,293.56,231125,,,A*70
$GPRMC,170205.96,A,2824.65024,N,08122.75965,W,0.262,,231125,,,A*64
$GPRMC,170206.00,A,2824.65025,N,08122.75965,W,0.417,309.95,231125,,,A*75
$GPRMC,170206.04,A,2824.65025,N,08122.75966,W,0.448,319.97,231125,,,A*7B
$GPRMC,170206.08,A,2824.65025,N,08122.75966,W,0.626,301.45,231125,,,A*7B
$GPRMC,170206.12,A,2824.65024,N,08122.75967,W,0.710,274.99,231125,,,A*76
$GPRMC,170206.24,A,2824.65024,N,08122.75972,W,0.541,269.61,231125,,,A*7A
$GPRMC,170206.28,A,2824.65024,N,08122.75972,W,0.358,261.01,231125,,,A*76
$GPRMC,170206.32,A,2824.65024,N,08122.75971,W,0.392,255.81,231125,,,A*77
$GPRMC,170206.36,A,2824.65024,N,08122.75971,W,0.367,,231125,,,A*6C
$GPRMC,170206.40,A,2824.65024,N,08122.75971,W,0.378,,231125,,,A*63
$GPRMC,170206.44,A,2824.65025,N,08122.75972,W,0.625,297.09,231125,,,A*73
$GPRMC,170206.48,A,2824.65025,N,08122.75972,W,0.392,,231125,,,A*6D
$GPRMC,170206.52,A,2824.65025,N,08122.75973,W,0.263,,231125,,,A*68
$GPRMC,170206.56,A,2824.65024,N,08122.75973,W,0.233,,231125,,,A*68
$GPGGA,170206.56,2824.65024,N,08122.75973,W,1,07,1.18,31.0,M,-29.2,M,,*59
$GPRMC,170206.60,A,2824.65022,N,08122.75974,W,0.720,236.44,231125,,,A*72
$GPRMC,170206.64,A,2824.65023,N,08122.75975,W,0.485,232.74,231125,,,A*7D
$GPRMC,170206.68,A,2824.65022,N,08122.75975,W,0.429,223.63,231125,,,A*70
$GPRMC,170206.72,A,2824.65021,N,08122.75976,W,0.711,230.41,231125,,,A*71
$GPRMC,170206.76,A,2824.65020,N,08122.75976,W,0.664,217.21,231125,,,A*74
$GPRMC,170206.80,A,2824.65022,N,08122.75977,W,0.615,234.76,231125,,,A*7B
$GPRMC,170206.92,A,2824.65022,N,08122.75976,W,0.232,,231125,,,A*62
$GPRMC,170206.96,A,2824.65024,N,08122.75976,W,0.377,306.17,231125,,,A*7D
$GPGGA,170206.96,2824.65024,N,08122.75976,W,1,07,1.18,31.0,M,-29.2,M,,*50
$GPRMC,170207.00,A,2824.65025,N,08122.75975,W,0.573,340.71,231125,,,A*71
$GPRMC,170207.04,A,2824.65025,N,08122.75976,W,0.468,338.49,231125,,,A*79
$GPRMC,170207.08,A,2824.65024,N,08122.75976,W,0.285,,231125,,,A*6A
$GPRMC,170207.12,A,2824.65023,N,08122.75975,W,0.338,,231125,,,A*62
$GPRMC,170207.24,A,2824.65018,N,08122.75974,W,0.803,150.93,231125,,,A*7D
$GPRMC,170207.28,A,2824.65018,N,08122.75973,W,0.491,149.02,231125,,,A*71
$GPRMC,170207.32,A,2824.65018,N,08122.75975,W,0.286,,231125,,,A*6C
$GPRMC,170207.36,A,2824.65018,N,08122.75974,W,0.251,,231125,,,A*63
$GPGGA,170207.36,2824.65018,N,08122.75974,W,1,07,1.18,31.0,M,-29.2,M,,*56
$GPRMC,170207.40,A,2824.65019,N,08122.75972,W,0.511,110.85,231125,,,A*75
$GPRMC,170207.44,A,2824.65019,N,08122.75972,W,0.049,,231125,,,A*6A
$GPRMC,170207.48,A,2824.65018,N,08122.75973,W,0.586,160.22,231125,,,A*79
$GPRMC,170207.52,A,2824.65017,N,08122.75973,W,0.790,185.60,231125,,,A*75
$GPRMC,170207.56,A,2824.65017,N,08122.75972,W,0.369,190.86,231125,,,A*7E
$GPRMC,170207.60,A,2824.65019,N,08122.75971,W,0.265,,231125,,,A*63
$GPRMC,170207.64,A,2824.65020,N,08122.75970,W,0.424,100.77,231125,,,A*70
$GPRMC,170207.68,A,2824.65021,N,08122.75969,W,0.282,,231125,,,A*60
$GPRMC,170207.72,A,2824.65021,N,08122.75970,W,0.150,,231125,,,A*6F
$GPRMC,170207.76,A,2824.65020,N,08122.75970,W,0.210,,231125,,,A*6D
$GPGGA,170207.76,2824.65020,N,08122.75970,W,1,07,1.18,31.2,M,-29.2,M,,*5F
$GPRMC,170207.80,A,2824.65020,N,08122.75969,W,0.315,,231125,,,A*68
$GPRMC,170207.92,A,2824.65021,N,08122.75962,W,1.026,105.47,231125,,,A*7A
$GPRMC,170207.96,A,2824.65022,N,08122.75960,W,1.229,89.25,231125,,,A*43
$GPRMC,170208.00,A,2824.65021,N,08122.75960,W,0.852,90.20,231125,,,A*4A
$GPRMC,170208.04,A,2824.65022,N,08122.75959,W,0.538,88.41,231125,,,A*48
$GPRMC,170208.08,A,2824.65022,N,08122.75959,W,0.228,,231125,,,A*69
$GPRMC,170208.12,A,2824.65022,N,08122.75958,W,0.320,,231125,,,A*6A
$GPRMC,170208.24,A,2824.65022,N,08122.75956,W,0.516,110.09,231125,,,A*75
$GPRMC,170208.28,A,2824.65022,N,08122.75956,W,0.424,110.49,231125,,,A*7D
$GPRMC,170208.32,A,2824.65022,N,08122.75956,W,0.350,118.06,231125,,,A*71
$GPRMC,170208.36,A,2824.65022,N,08122.75955,W,0.164,,231125,,,A*63
$GPRMC,170208.40,A,2824.65023,N,08122.75955,W,0.128,,231125,,,A*6B
